city_ascii,country,city,latitude,longitude,iso_3166
Tokyo,Japan,Tokyo,35.6897,139.6922,JP
Jakarta,Indonesia,Jakarta,-6.2146,106.8451,ID
Delhi,India,Delhi,28.66,77.23,IN
Mumbai,India,Mumbai,18.9667,72.8333,IN
Manila,Philippines,Manila,14.6,120.9833,PH
Shanghai,China,Shanghai,31.1667,121.4667,CN
Sao Paulo,Brazil,São Paulo,-23.5504,-46.6339,BR
Seoul,South Korea,Seoul,37.56,126.99,KR
Mexico City,Mexico,Mexico City,19.4333,-99.1333,MX
Guangzhou,China,Guangzhou,23.1288,113.259,CN
Beijing,China,Beijing,39.905,116.3914,CN
Cairo,Egypt,Cairo,30.0561,31.2394,EG
New York,United States,New York,40.6943,-73.9249,US
Kolkata,India,Kolkāta,22.5411,88.3378,IN
Moscow,Russia,Moscow,55.7558,37.6178,RU
Bangkok,Thailand,Bangkok,13.75,100.5167,TH
Buenos Aires,Argentina,Buenos Aires,-34.5997,-58.3819,AR
Shenzhen,China,Shenzhen,22.535,114.054,CN
Dhaka,Bangladesh,Dhaka,23.7289,90.3944,BD
Lagos,Nigeria,Lagos,6.45,3.4,NG
Istanbul,Turkey,Istanbul,41.01,28.9603,TR
Osaka,Japan,Ōsaka,34.75,135.4601,JP
Karachi,Pakistan,Karachi,24.86,67.01,PK
Bangalore,India,Bangalore,12.9699,77.598,IN
Tehran,Iran,Tehran,35.7,51.4167,IR
Kinshasa,Congo (Kinshasa),Kinshasa,-4.3233,15.3081,CD
Ho Chi Minh City,Vietnam,Ho Chi Minh City,10.8167,106.6333,VN
Los Angeles,United States,Los Angeles,34.1139,-118.4068,US
Rio de Janeiro,Brazil,Rio de Janeiro,-22.9083,-43.1964,BR
Nanyang,China,Nanyang,32.9987,112.5292,CN
Baoding,China,Baoding,38.8671,115.4845,CN
Chennai,India,Chennai,13.0825,80.275,IN
Chengdu,China,Chengdu,30.66,104.0633,CN
Lahore,Pakistan,Lahore,31.5497,74.3436,PK
Paris,France,Paris,48.8566,2.3522,FR
London,United Kingdom,London,51.5072,-0.1275,GB
Linyi,China,Linyi,35.0606,118.3425,CN
Tianjin,China,Tianjin,39.1467,117.2056,CN
Shijiazhuang,China,Shijiazhuang,38.0422,114.5086,CN
Zhoukou,China,Zhoukou,33.625,114.6418,CN
Lima,Peru,Lima,-12.05,-77.0333,PE
Hyderabad,India,Hyderābād,17.3667,78.4667,IN
Handan,China,Handan,36.6116,114.4894,CN
Bogota,Colombia,Bogotá,4.6126,-74.0705,CO
Weifang,China,Weifang,36.7167,119.1,CN
Nagoya,Japan,Nagoya,35.1167,136.9333,JP
Wuhan,China,Wuhan,30.5872,114.2881,CN
Heze,China,Heze,35.2333,115.4333,CN
Ganzhou,China,Ganzhou,25.8292,114.9336,CN
Tongshan,China,Tongshan,34.261,117.1859,CN
Chicago,United States,Chicago,41.8373,-87.6862,US
Luanda,Angola,Luanda,-8.8383,13.2344,AO
Changsha,China,Changsha,28.1987,112.9709,CN
Fuyang,China,Fuyang,32.8986,115.8045,CN
Kuala Lumpur,Malaysia,Kuala Lumpur,3.1478,101.6953,MY
Jining,China,Jining,35.4,116.5667,CN
Dongguan,China,Dongguan,23.0475,113.7493,CN
Jinan,China,Jinan,36.6667,116.9833,CN
Foshan,China,Foshan,23.0292,113.1056,CN
Hanoi,Vietnam,Hanoi,21.0245,105.8412,VN
Pune,India,Pune,18.5196,73.8553,IN
Chongqing,China,Chongqing,29.5628,106.5528,CN
Changchun,China,Changchun,43.9,125.2,CN
Zhumadian,China,Zhumadian,32.9773,114.0253,CN
Ningbo,China,Ningbo,29.875,121.5492,CN
Cangzhou,China,Cangzhou,38.3037,116.8452,CN
Nanjing,China,Nanjing,32.05,118.7667,CN
Hefei,China,Hefei,31.8639,117.2808,CN
Ahmedabad,India,Ahmedabad,23.03,72.58,IN
Hong Kong,Hong Kong,Hong Kong,22.305,114.185,HK
Zhanjiang,China,Zhanjiang,21.1967,110.4031,CN
Shaoyang,China,Shaoyang,27.2418,111.4725,CN
Hengyang,China,Hengyang,26.8968,112.5857,CN
Khartoum,Sudan,Khartoum,15.6031,32.5265,SD
Nantong,China,Nantong,31.9829,120.8873,CN
Yancheng,China,Yancheng,33.3936,120.1339,CN
Nanning,China,Nanning,22.8192,108.315,CN
Xi'an,China,Xi’an,34.2667,108.9,CN
Shenyang,China,Shenyang,41.8039,123.4258,CN
Tangshan,China,Tangshan,39.6292,118.1742,CN
Santiago,Chile,Santiago,-33.45,-70.6667,CL
Zhengzhou,China,Zhengzhou,34.7492,113.6605,CN
Shangqiu,China,Shangqiu,34.4259,115.6467,CN
Yantai,China,Yantai,37.3997,121.2664,CN
Riyadh,Saudi Arabia,Riyadh,24.65,46.71,SA
Dar es Salaam,Tanzania,Dar es Salaam,-6.8,39.2833,TZ
Xinyang,China,Xinyang,32.1264,114.0672,CN
Shangrao,China,Shangrao,28.4419,117.9633,CN
Luoyang,China,Luoyang,34.6587,112.4245,CN
Bijie,China,Bijie,27.3019,105.2863,CN
Quanzhou,China,Quanzhou,24.9139,118.5858,CN
Hangzhou,China,Hangzhou,30.25,120.1675,CN
Miami,United States,Miami,25.7839,-80.2102,US
Huanggang,China,Huanggang,30.45,114.875,CN
Maoming,China,Maoming,21.6618,110.9178,CN
Kunming,China,Kunming,25.0433,102.7061,CN
Nanchong,China,Nanchong,30.7991,106.0784,CN
Zunyi,China,Zunyi,27.705,106.9336,CN
Jieyang,China,Jieyang,23.5533,116.3649,CN
Lu'an,China,Lu’an,31.7542,116.5078,CN
Yichun,China,Yichun,27.8041,114.383,CN
Madrid,Spain,Madrid,40.4167,-3.7167,ES
Changde,China,Changde,29.0397,111.6839,CN
Taizhou,China,Taizhou,28.6583,121.4221,CN
Liaocheng,China,Liaocheng,36.45,115.9833,CN
Qujing,China,Qujing,25.5102,103.8029,CN
Surat,India,Sūrat,21.17,72.83,IN
Baghdad,Iraq,Baghdad,33.35,44.4167,IQ
Qingdao,China,Qingdao,36.1167,120.4,CN
Singapore,Singapore,Singapore,1.3,103.8,SG
Dallas,United States,Dallas,32.7936,-96.7662,US
Dazhou,China,Dazhou,31.2152,107.4947,CN
Suzhou,China,Suzhou,33.6333,116.9683,CN
Xiangyang,China,Xiangyang,32.0654,112.1531,CN
Philadelphia,United States,Philadelphia,40.0077,-75.1339,US
Giza,Egypt,Giza,29.987,31.2118,EG
Nairobi,Kenya,Nairobi,-1.2864,36.8172,KE
Nangandao,China,Nangandao,35.2992,113.8851,CN
Ankara,Turkey,Ankara,39.93,32.85,TR
Tai'an,China,Tai’an,36.2001,117.0809,CN
Yulin,China,Yulin,22.6293,110.1507,CN
Dezhou,China,Dezhou,37.4513,116.3105,CN
Houston,United States,Houston,29.7863,-95.3889,US
Atlanta,United States,Atlanta,33.7627,-84.4224,US
Yongzhou,China,Yongzhou,26.4515,111.5953,CN
Rangoon,Myanmar,Rangoon,16.8,96.15,MM
Toronto,Canada,Toronto,43.7417,-79.3733,CA
Suihua,China,Suihua,46.6384,126.9808,CN
Washington,United States,Washington,38.9047,-77.0163,US
Qiqihar,China,Qiqihar,47.3398,123.9512,CN
Jinhua,China,Jinhua,29.1046,119.6494,CN
Saint Petersburg,Russia,Saint Petersburg,59.95,30.3167,RU
Shantou,China,Shantou,23.3735,116.6941,CN
Sydney,Australia,Sydney,-33.865,151.2094,AU
Weinan,China,Weinan,34.4996,109.4684,CN
Suqian,China,Suqian,33.9331,118.2831,CN
Guadalajara,Mexico,Guadalajara,20.6767,-103.3475,MX
Suzhou,China,Suzhou,31.304,120.6164,CN
Fuzhou,China,Fuzhou,26.0769,119.2917,CN
Zhaotong,China,Zhaotong,27.3328,103.7144,CN
Pudong,China,Pudong,31.2231,121.5397,CN
Belo Horizonte,Brazil,Belo Horizonte,-19.9281,-43.9419,BR
Zhangzhou,China,Zhangzhou,24.5093,117.6612,CN
Bozhou,China,Bozhou,33.8626,115.7742,CN
Melbourne,Australia,Melbourne,-37.8136,144.9631,AU
Nanchang,China,Nanchang,28.6842,115.8872,CN
Xianyang,China,Xianyang,34.35,108.7167,CN
Taizhou,China,Taizhou,32.4831,119.9,CN
Surabaya,Indonesia,Surabaya,-7.2458,112.7378,ID
Abidjan,Côte D’Ivoire,Abidjan,5.3364,-4.0267,CI
Huaihua,China,Huaihua,27.5494,109.9592,CN
Ji'an,China,Ji’an,27.1172,114.9793,CN
Mianyang,China,Mianyang,31.4669,104.7385,CN
Xiaoganzhan,China,Xiaoganzhan,30.9273,113.911,CN
Shaoxing,China,Shaoxing,30,120.5833,CN
Alexandria,Egypt,Alexandria,31.2,29.9167,EG
Yuncheng,China,Yuncheng,35.0304,110.998,CN
Pingdingshan,China,Pingdingshan,33.735,113.2999,CN
Huizhou,China,Huizhou,23.1115,114.4152,CN
Huai'an,China,Huai’an,33.5,119.1331,CN
Xinpu,China,Xinpu,34.5906,119.1801,CN
Chenzhou,China,Chenzhou,25.7989,113.0267,CN
Guilin,China,Guilin,25.2667,110.2833,CN
Jiujiang,China,Jiujiang,29.7048,116.0021,CN
Anqing,China,Anqing,30.5,117.0333,CN
Boston,United States,Boston,42.3188,-71.0846,US
Huanglongsi,China,Huanglongsi,34.7936,114.3403,CN
Jiangmen,China,Jiangmen,22.5833,113.0833,CN
Changzhou,China,Changzhou,31.8122,119.9692,CN
Barcelona,Spain,Barcelona,41.3825,2.1769,ES
Wuxi,China,Wuxi,31.5667,120.2833,CN
Zibo,China,Zibo,36.7831,118.0497,CN
Jiaxing,China,Jiaxing,30.7522,120.75,CN
Dalian,China,Dalian,38.9,121.6,CN
Hengshui,China,Hengshui,37.7348,115.686,CN
Harbin,China,Harbin,45.75,126.6333,CN
Yangzhou,China,Yangzhou,32.3912,119.4363,CN
Yibin,China,Yibin,28.7596,104.64,CN
Johannesburg,South Africa,Johannesburg,-26.2044,28.0416,ZA
Yiyang,China,Yiyang,28.5833,112.3333,CN
Meizhou,China,Meizhou,24.2998,116.1191,CN
Chifeng,China,Chifeng,42.2663,118.9223,CN
Casablanca,Morocco,Casablanca,33.5992,-7.62,MA
Guiyang,China,Guiyang,26.5794,106.7078,CN
Langfang,China,Langfang,39.5196,116.7006,CN
Zhangjiakou,China,Zhangjiakou,40.8108,114.8811,CN
Izmir,Turkey,İzmir,38.4127,27.1384,TR
Linfen,China,Linfen,36.0812,111.5087,CN
Wenzhou,China,Wenzhou,27.9991,120.6561,CN
Monterrey,Mexico,Monterrey,25.6667,-100.3,MX
Luzhou,China,Luzhou,28.8918,105.4409,CN
Jiangguanchi,China,Jiangguanchi,34.0244,113.8201,CN
Neijiang,China,Neijiang,29.5872,105.0635,CN
Phoenix,United States,Phoenix,33.5722,-112.0891,US
Yanjiang,China,Yanjiang,30.1256,104.6397,CN
Zhaoqing,China,Zhaoqing,23.05,112.4667,CN
Xiaoxita,China,Xiaoxita,30.7083,111.2803,CN
Guigang,China,Guigang,23.0961,109.6092,CN
Xiamen,China,Xiamen,24.4797,118.0819,CN
Chuzhou,China,Chuzhou,32.3062,118.3115,CN
Fuzhou,China,Fuzhou,27.9814,116.3577,CN
Zhuzhou,China,Zhuzhou,27.8407,113.1469,CN
Amman,Jordan,Amman,31.95,35.9333,JO
Jeddah,Saudi Arabia,Jeddah,21.5428,39.1728,SA
Loudi,China,Loudi,27.7378,111.9974,CN
Deyang,China,Deyang,31.1289,104.395,CN
Qingyuan,China,Qingyuan,23.6842,113.0507,CN
Wuhu,China,Wuhu,31.334,118.3622,CN
Hechi,China,Hechi,23.0965,109.6091,CN
Seattle,United States,Seattle,47.6211,-122.3244,US
Binzhou,China,Binzhou,37.3806,118.0125,CN
Yokohama,Japan,Yokohama,35.4333,139.6333,JP
Liuzhou,China,Liuzhou,24.3264,109.4281,CN
Baojishi,China,Baojishi,34.3609,107.1751,CN
Guang'an,China,Guang’an,30.4673,106.6336,CN
Hanzhong,China,Hanzhong,33.0794,107.026,CN
Kabul,Afghanistan,Kabul,34.5328,69.1658,AF
Zaozhuang,China,Zaozhuang,34.8667,117.55,CN
Berlin,Germany,Berlin,52.5167,13.3833,DE
Anshan,China,Anshan,41.1066,122.9895,CN
Lanzhou,China,Lanzhou,36.0617,103.8318,CN
Chengde,China,Chengde,40.9739,117.9322,CN
San Francisco,United States,San Francisco,37.7562,-122.443,US
Puyang,China,Puyang,35.7639,115.03,CN
Suining,China,Suining,30.5098,105.5737,CN
Jiaozuo,China,Jiaozuo,35.229,113.2304,CN
Bengbu,China,Bengbu,32.9354,117.3531,CN
Montreal,Canada,Montréal,45.5089,-73.5617,CA
Detroit,United States,Detroit,42.3834,-83.1024,US
Baicheng,China,Baicheng,23.901,106.6194,CN
Busan,South Korea,Busan,35.1,129.0403,KR
Algiers,Algeria,Algiers,36.7764,3.0586,DZ
Qincheng,China,Qincheng,34.5809,105.7311,CN
Taiyuan,China,Taiyuan,37.8733,112.5425,CN
Shiyan,China,Shiyan,32.6351,110.7755,CN
Lucknow,India,Lucknow,26.847,80.947,IN
Chaoyang,China,Chaoyang,41.5757,120.4486,CN
Hechi,China,Hechi,24.6928,108.085,CN
Leshan,China,Leshan,29.5854,103.7575,CN
Yulinshi,China,Yulinshi,38.2655,109.7388,CN
Siping,China,Siping,43.1715,124.3644,CN
Zhongshan,China,Zhongshan,22.5333,113.35,CN
Changzhi,China,Changzhi,36.1953,113.097,CN
San Diego,United States,San Diego,32.8312,-117.1225,US
Faisalabad,Pakistan,Faisalabad,31.418,73.079,PK
Santa Cruz,Bolivia,Santa Cruz,-17.7892,-63.1975,BO
Qinhuangdao,China,Qinhuangdao,39.9398,119.5881,CN
Bazhou,China,Bazhou,31.8576,106.7559,CN
Zhenjiang,China,Zhenjiang,32.2109,119.4551,CN
Urumqi,China,Ürümqi,43.8225,87.6125,CN
Tongliao,China,Tongliao,43.6172,122.264,CN
Heyuan,China,Heyuan,23.7503,114.6923,CN
Tongren,China,Tongren,27.7233,109.1885,CN
Qinzhou,China,Qinzhou,21.95,108.6167,CN
Jaipur,India,Jaipur,26.9167,75.8667,IN
Xinzhou,China,Xinzhou,38.4178,112.7233,CN
Addis Ababa,Ethiopia,Addis Ababa,9.0272,38.7369,ET
Meishan,China,Meishan,30.0575,103.8381,CN
Brasilia,Brazil,Brasília,-15.7939,-47.8828,BR
Mashhad,Iran,Mashhad,36.3069,59.6042,IR
Jinzhou,China,Jinzhou,41.1144,121.1292,CN
Tieling,China,Tieling,42.2841,123.8365,CN
Shaoguan,China,Shaoguan,24.8011,113.5927,CN
Kuwait City,Kuwait,Kuwait City,29.375,47.98,KW
Shanwei,China,Shanwei,22.7664,115.3331,CN
Minneapolis,United States,Minneapolis,44.9635,-93.2678,US
Kyiv,Ukraine,Kyiv,50.45,30.5236,UA
Sanaa,Yemen,Sanaa,15.35,44.2,YE
Quezon City,Philippines,Quezon City,14.6333,121.0333,PH
Dingxi,China,Dingxi,35.5806,104.6263,CN
Incheon,South Korea,Incheon,37.4639,126.6486,KR
Bursa,Turkey,Bursa,40.1833,29.0667,TR
Ningde,China,Ningde,26.6667,119.5167,CN
Tampa,United States,Tampa,27.9942,-82.4451,US
Daqing,China,Daqing,46.5979,125.008,CN
Birmingham,United Kingdom,Birmingham,52.48,-1.9025,GB
Putian,China,Putian,25.4394,119.0103,CN
Huzhou,China,Huzhou,30.8695,120.0958,CN
Salvador,Brazil,Salvador,-12.9708,-38.5108,BR
Wuzhou,China,Wuzhou,23.4833,111.3167,CN
Xiangtan,China,Xiangtan,27.8431,112.9228,CN
Denver,United States,Denver,39.7621,-104.8759,US
Rome,Italy,Rome,41.8931,12.4828,IT
La Paz,Bolivia,La Paz,-16.4942,-68.1475,BO
Pyongyang,North Korea,Pyongyang,39.03,125.73,KP
Kano,Nigeria,Kano,12,8.5167,NG
Taichung,Taiwan,Taichung,24.15,120.6667,TW
Omdurman,Sudan,Omdurman,15.6835,32.4629,SD
Zigong,China,Zigong,29.3498,104.7645,CN
Mudanjiang,China,Mudanjiang,44.5861,129.5997,CN
Huludao,China,Huludao,40.7094,120.8378,CN
Kaohsiung,Taiwan,Kaohsiung,22.6167,120.3,TW
Guayaquil,Ecuador,Guayaquil,-2.1833,-79.8833,EC
Rizhao,China,Rizhao,35.4164,119.4331,CN
Manchester,United Kingdom,Manchester,53.4794,-2.2453,GB
Cawnpore,India,Cawnpore,26.4725,80.3311,IN
Baotou,China,Baotou,40.6562,109.8345,CN
Taipei,Taiwan,Taipei,25.0478,121.5319,TW
Nanping,China,Nanping,26.6448,118.1728,CN
Chaozhou,China,Chaozhou,23.67,116.63,CN
Longyan,China,Longyan,25.0881,117.0244,CN
Ibadan,Nigeria,Ibadan,7.3964,3.9167,NG
Hohhot,China,Hohhot,40.8151,111.6629,CN
Antananarivo,Madagascar,Antananarivo,-18.9386,47.5214,MG
Longba,China,Longba,33.535,105.349,CN
Weihai,China,Weihai,37.5,122.1,CN
Chattogram,Bangladesh,Chattogram,22.335,91.8325,BD
Santo Domingo,Dominican Republic,Santo Domingo,18.4764,-69.8933,DO
Xuanzhou,China,Xuanzhou,30.9475,118.7518,CN
Sanming,China,Sanming,26.2658,117.6302,CN
Brooklyn,United States,Brooklyn,40.6501,-73.9496,US
Yangjiang,China,Yangjiang,21.8556,111.9627,CN
Medellin,Colombia,Medellín,6.2447,-75.5748,CO
Yunfu,China,Yunfu,22.9242,112.0353,CN
Brisbane,Australia,Brisbane,-27.4678,153.0281,AU
Baoshan,China,Baoshan,25.1211,99.169,CN
Dubai,United Arab Emirates,Dubai,25.2697,55.3094,AE
Luohe,China,Luohe,33.583,114.0109,CN
Qinbaling,China,Qinbaling,35.7278,107.64,CN
Mirzapur,India,Mirzāpur,25.15,82.58,IN
Guangyuan,China,Guangyuan,32.4353,105.8398,CN
Cali,Colombia,Cali,3.44,-76.5197,CO
Huangshi,China,Huangshi,30.2018,115.0326,CN
Daegu,South Korea,Daegu,35.8667,128.6,KR
Fortaleza,Brazil,Fortaleza,-3.7275,-38.5275,BR
Guatemala City,Guatemala,Guatemala City,14.6099,-90.5252,GT
Yaounde,Cameroon,Yaoundé,3.8578,11.5181,CM
Douala,Cameroon,Douala,4.05,9.7,CM
Jilin,China,Jilin,43.85,126.55,CN
Lianshan,China,Lianshan,40.7503,120.83,CN
Lincang,China,Lincang,23.8864,100.0871,CN
Antalya,Turkey,Antalya,36.9081,30.6956,TR
Tashkent,Uzbekistan,Tashkent,41.3,69.2667,UZ
Bandung,Indonesia,Bandung,-6.95,107.5667,ID
Nagpur,India,Nāgpur,21.1539,79.0831,IN
Huainan,China,Huainan,32.4831,117.0164,CN
Dandong,China,Dandong,40.1167,124.3833,CN
Shangzhou,China,Shangzhou,33.868,109.9244,CN
Bekasi,Indonesia,Bekasi,-6.2333,107,ID
Ghaziabad,India,Ghāziābād,28.6667,77.4167,IN
Tijuana,Mexico,Tijuana,32.525,-117.0333,MX
Jiamusi,China,Jiamusi,46.8081,130.3653,CN
Accra,Ghana,Accra,5.6037,-0.187,GH
Yuxi,China,Yuxi,24.3495,102.5432,CN
Anshun,China,Anshun,26.2456,105.934,CN
Vancouver,Canada,Vancouver,49.25,-123.1,CA
Tangerang,Indonesia,Tangerang,-6.1783,106.6319,ID
Konya,Turkey,Konya,37.8714,32.4847,TR
Queens,United States,Queens,40.7498,-73.7976,US
Yingkou,China,Yingkou,40.6653,122.2297,CN
Adana,Turkey,Adana,37,35.325,TR
Medan,Indonesia,Medan,3.6667,98.6667,ID
Sanmenxia,China,Sanmenxia,34.7736,111.195,CN
Indore,India,Indore,22.7206,75.8472,IN
Ma'anshan,China,Ma’anshan,31.7135,118.3605,CN
Pingliang,China,Pingliang,35.5412,106.6819,CN
Quzhou,China,Quzhou,28.9545,118.8763,CN
Baku,Azerbaijan,Baku,40.3667,49.8352,AZ
Gaoping,China,Gaoping,30.7804,106.13,CN
Huaibei,China,Huaibei,33.9562,116.789,CN
Xining,China,Xining,36.6239,101.7787,CN
Harare,Zimbabwe,Harare,-17.8292,31.0522,ZW
Yan'an,China,Yan’an,36.5952,109.4863,CN
Havana,Cuba,Havana,23.1367,-82.3589,CU
Phnom Penh,Cambodia,Phnom Penh,11.5696,104.921,KH
Fukuoka,Japan,Fukuoka,33.6,130.4167,JP
Mogadishu,Somalia,Mogadishu,2.0408,45.3425,SO
Jincheng,China,Jincheng,35.4906,112.8483,CN
Puning,China,Puning,23.2993,116.1586,CN
Lishui,China,Lishui,28.45,119.9167,CN
Qingyang,China,Qingyang,24.8141,118.5792,CN
Riverside,United States,Riverside,33.9381,-117.3948,US
Baltimore,United States,Baltimore,39.3051,-76.6144,US
Haiphong,Vietnam,Haiphong,20.8,106.6667,VN
Las Vegas,United States,Las Vegas,36.2333,-115.2654,US
Laibin,China,Laibin,23.7333,109.2333,CN
Rawalpindi,Pakistan,Rawalpindi,33.6007,73.0679,PK
Kumasi,Ghana,Kumasi,6.6833,-1.6167,GH
Portland,United States,Portland,45.5372,-122.65,US
Vadodara,India,Vadodara,22.3,73.2,IN
Perth,Australia,Perth,-31.9522,115.8589,AU
San Antonio,United States,San Antonio,29.4658,-98.5253,US
Vishakhapatnam,India,Vishākhapatnam,17.7333,83.3167,IN
Gujranwala,Pakistan,Gujranwala,32.15,74.1833,PK
Gaziantep,Turkey,Gaziantep,37.0667,37.3833,TR
Fushun,China,Fushun,41.8708,123.8917,CN
St. Louis,United States,St. Louis,38.6358,-90.2451,US
Bamako,Mali,Bamako,12.6458,-7.9922,ML
Quito,Ecuador,Quito,-0.2186,-78.5097,EC
Minsk,Belarus,Minsk,53.9022,27.5618,BY
Pingxiang,China,Pingxiang,27.6333,113.85,CN
Chongzuo,China,Chongzuo,22.4167,107.3667,CN
Sanliurfa,Turkey,Şanlıurfa,37.1583,38.7917,TR
Kananga,Congo (Kinshasa),Kananga,-5.897,22.4488,CD
Peshawar,Pakistan,Peshawar,34,71.5,PK
Sapporo,Japan,Sapporo,43.0621,141.3544,JP
Hezhou,China,Hezhou,24.4164,111.5478,CN
Jixi,China,Jixi,45.2937,130.965,CN
Caracas,Venezuela,Caracas,10.5,-66.9333,VE
Fuxin,China,Fuxin,42.0127,121.6486,CN
Aleppo,Syria,Aleppo,36.2,37.15,SY
Almaty,Kazakhstan,Almaty,43.25,76.9,KZ
Dayr az Zawr,Syria,Dayr az Zawr,35.3333,40.15,SY
Vienna,Austria,Vienna,48.2083,16.3731,AT
Leeds,United Kingdom,Leeds,53.7997,-1.5492,GB
Sacramento,United States,Sacramento,38.5667,-121.4683,US
Blantyre,Malawi,Blantyre,-15.7861,35.0058,MW
Tainan,Taiwan,Tainan,22.9833,120.1833,TW
Zhuhai,China,Zhuhai,22.2769,113.5678,CN
Bucharest,Romania,Bucharest,44.4,26.0833,RO
Wuwei,China,Wuwei,37.9278,102.6329,CN
Bhopal,India,Bhopāl,23.25,77.4167,IN
Curitiba,Brazil,Curitiba,-25.4297,-49.2719,BR
Multan,Pakistan,Multan,30.1978,71.4711,PK
Xiping,China,Xiping,40.08,113.3,CN
Asuncion,Paraguay,Asunción,-25.3,-57.6333,PY
Saidu Sharif,Pakistan,Saidu Sharif,34.75,72.3572,PK
Hamburg,Germany,Hamburg,53.55,10,DE
Meru,Kenya,Meru,0.05,37.65,KE
Brazzaville,Congo (Brazzaville),Brazzaville,-4.2667,15.2833,CG
Orlando,United States,Orlando,28.4772,-81.3369,US
Mersin,Turkey,Mersin,36.8,34.6167,TR
Kyoto,Japan,Kyōto,35.0111,135.7669,JP
Manaus,Brazil,Manaus,-3.1,-60.0167,BR
Liaoyang,China,Liaoyang,41.2643,123.1772,CN
Baiyin,China,Baiyin,36.5448,104.1766,CN
San Jose,United States,San Jose,37.3019,-121.8486,US
Warsaw,Poland,Warsaw,52.2167,21.0333,PL
Shengli,China,Shengli,37.45,118.4667,CN
Lubumbashi,Congo (Kinshasa),Lubumbashi,-11.6697,27.4581,CD
Haikou,China,Haikou,20.02,110.32,CN
Damascus,Syria,Damascus,33.5131,36.2919,SY
Shuyangzha,China,Shuyangzha,34.1299,118.7734,CN
Brussels,Belgium,Brussels,50.8333,4.3333,BE
Esfahan,Iran,Eşfahān,32.6447,51.6675,IR
Budapest,Hungary,Budapest,47.4983,19.0408,HU
Heihe,China,Heihe,50.2458,127.4886,CN
Lusaka,Zambia,Lusaka,-15.4167,28.2833,ZM
Hyderabad City,Pakistan,Hyderabad City,25.3792,68.3683,PK
Diyarbakir,Turkey,Diyarbakır,37.9108,40.2367,TR
Chinchvad,India,Chinchvad,18.6278,73.8131,IN
Shuozhou,China,Shuozhou,39.3408,112.4292,CN
Cleveland,United States,Cleveland,41.4767,-81.6804,US
Pittsburgh,United States,Pittsburgh,40.4396,-79.9762,US
Patna,India,Patna,25.61,85.1414,IN
Mosul,Iraq,Mosul,36.3667,43.1167,IQ
Austin,United States,Austin,30.3004,-97.7522,US
Sanzhou,China,Sanzhou,30.82,108.4,CN
Mecca,Saudi Arabia,Mecca,21.4225,39.8261,SA
Conakry,Guinea,Conakry,9.5092,-13.7122,GN
Kampala,Uganda,Kampala,0.3136,32.5811,UG
Ecatepec,Mexico,Ecatepec,19.6097,-99.06,MX
Cincinnati,United States,Cincinnati,39.1413,-84.5061,US
Makassar,Indonesia,Makassar,-5.1331,119.4136,ID
Yushan,China,Yushan,31.3867,120.9766,CN
Ludhiana,India,Ludhiāna,30.9083,75.8486,IN
Newcastle,United Kingdom,Newcastle,55.0077,-1.6578,GB
Depok,Indonesia,Depok,-6.394,106.8225,ID
Zhongli,Taiwan,Zhongli,24.965,121.2168,TW
Kansas City,United States,Kansas City,39.1239,-94.5541,US
Ouagadougou,Burkina Faso,Ouagadougou,12.3572,-1.5353,BF
Davao,Philippines,Davao,7.0667,125.6,PH
Manhattan,United States,Manhattan,40.7834,-73.9662,US
Semarang,Indonesia,Semarang,-6.9667,110.4167,ID
Yinchuan,China,Yinchuan,38.4795,106.2254,CN
Caloocan City,Philippines,Caloocan City,14.65,120.9667,PH
Novosibirsk,Russia,Novosibirsk,55.0333,82.9167,RU
Chengtangcun,China,Chengtangcun,35.0833,117.15,CN
Agra,India,Āgra,27.18,78.02,IN
Karaj,Iran,Karaj,35.8327,50.9915,IR
Indianapolis,United States,Indianapolis,39.7771,-86.1458,US
Jingdezhen,China,Jingdezhen,29.2942,117.2036,CN
Puebla,Mexico,Puebla,19.0333,-98.1833,MX
Kalyan,India,Kalyān,19.2502,73.1602,IN
Madurai,India,Madurai,9.9197,78.1194,IN
Benxi,China,Benxi,41.292,123.761,CN
Jamshedpur,India,Jamshedpur,22.8,86.1833,IN
Recife,Brazil,Recife,-8.0539,-34.8808,BR
Columbus,United States,Columbus,39.9862,-82.985,US
Tabriz,Iran,Tabrīz,38.0833,46.2833,IR
Maracaibo,Venezuela,Maracaibo,10.6333,-71.6333,VE
Zhangjiajie,China,Zhangjiajie,29.1255,110.4844,CN
Beihai,China,Beihai,21.4667,109.1,CN
Shuangyashan,China,Shuangyashan,46.6388,131.1545,CN
Kobe,Japan,Kōbe,34.6913,135.183,JP
Charlotte,United States,Charlotte,35.208,-80.8304,US
Yucheng,China,Yucheng,29.9888,103.0007,CN
Changshu,China,Changshu,31.65,120.7333,CN
Lianjiang,China,Lianjiang,21.6146,110.2794,CN
Ximeicun,China,Ximeicun,24.9633,118.3811,CN
Jianguang,China,Jianguang,28.1958,115.7833,CN
Madinat as Sadis min Uktubar,Egypt,Madīnat as Sādis min Uktūbar,29.9361,30.9269,EG
Xushan,China,Xushan,30.1697,121.2665,CN
Belem,Brazil,Belém,-1.4558,-48.5039,BR
Guiping,China,Guiping,23.4,110.0833,CN
Leizhou,China,Leizhou,20.9147,110.0806,CN
Gwangju,South Korea,Gwangju,35.1667,126.9167,KR
Nasik,India,Nāsik,20,73.7833,IN
Porto Alegre,Brazil,Porto Alegre,-30.0328,-51.23,BR
Valencia,Venezuela,Valencia,10.1667,-68,VE
Onitsha,Nigeria,Onitsha,6.1667,6.7833,NG
Virginia Beach,United States,Virginia Beach,36.7335,-76.0435,US
Daejeon,South Korea,Daejeon,36.351,127.385,KR
Munich,Germany,Munich,48.1372,11.5755,DE
Auckland,New Zealand,Auckland,-36.85,174.7833,NZ
Yekaterinburg,Russia,Yekaterinburg,56.8356,60.6128,RU
Huangshan,China,Huangshan,29.7132,118.3151,CN
Huazhou,China,Huazhou,32.6889,112.0447,CN
Shiraz,Iran,Shīrāz,29.61,52.5425,IR
Pizhou,China,Pizhou,34.3422,118.0097,CN
Palembang,Indonesia,Palembang,-2.9833,104.7644,ID
Leon de los Aldama,Mexico,León de los Aldama,21.1167,-101.6833,MX
El Kelaa des Srarhna,Morocco,El Kelaa des Srarhna,32.05,-7.4,MA
Kharkiv,Ukraine,Kharkiv,50,36.2292,UA
Kawanakajima,Japan,Kawanakajima,35.53,139.705,JP
Yangshe,China,Yangshe,31.8775,120.5512,CN
Chizhou,China,Chizhou,30.6583,117.4849,CN
Guyuan,China,Guyuan,36.008,106.2782,CN
Rui'an,China,Rui’an,27.778,120.6526,CN
Birstall,United Kingdom,Birstall,52.6736,-1.12,GB
Muscat,Oman,Muscat,23.6139,58.5922,OM
Hebi,China,Hebi,35.7497,114.2887,CN
Bronx,United States,Bronx,40.8501,-73.8662,US
Gaozhou,China,Gaozhou,21.9135,110.8481,CN
The Hague,Netherlands,The Hague,52.0767,4.2986,NL
Owerri,Nigeria,Owerri,5.4833,7.0333,NG
Sharjah,United Arab Emirates,Sharjah,25.3575,55.3919,AE
Faridabad,India,Farīdābād,28.4333,77.3167,IN
Ulaanbaatar,Mongolia,Ulaanbaatar,47.9203,106.9172,MN
Goiania,Brazil,Goiânia,-16.6806,-49.2564,BR
Kayseri,Turkey,Kayseri,38.7333,35.4833,TR
Yueqing,China,Yueqing,28.1188,120.9621,CN
Belgrade,Serbia,Belgrade,44.8167,20.4667,RS
Pingdu,China,Pingdu,36.7833,119.9556,CN
Milan,Italy,Milan,45.4669,9.19,IT
Aurangabad,India,Aurangābād,19.88,75.32,IN
Yutan,China,Yutan,28.3147,112.554,CN
Wenling,China,Wenling,28.3797,121.3718,CN
Milwaukee,United States,Milwaukee,43.0642,-87.9673,US
Sofia,Bulgaria,Sofia,42.6979,23.3217,BG
Adelaide,Australia,Adelaide,-34.9289,138.6011,AU
Prague,Czechia,Prague,50.0833,14.4167,CZ
Samsun,Turkey,Samsun,41.2867,36.33,TR
Rajkot,India,Rājkot,22.2969,70.7984,IN
Liangshi,China,Liangshi,27.2578,111.7351,CN
Khulna,Bangladesh,Khulna,22.8167,89.55,BD
Cordoba,Argentina,Córdoba,-31.4167,-64.1833,AR
Guarulhos,Brazil,Guarulhos,-23.4667,-46.5333,BR
Juarez,Mexico,Juárez,31.7386,-106.487,MX
Saitama,Japan,Saitama,35.8617,139.6453,JP
Montevideo,Uruguay,Montevideo,-34.8667,-56.1667,UY
Mbuji-Mayi,Congo (Kinshasa),Mbuji-Mayi,-6.1209,23.5967,CD
Fuqing,China,Fuqing,25.7232,119.3735,CN
Xintai,China,Xintai,35.91,117.78,CN
Doha,Qatar,Doha,25.3,51.5333,QA
Hiroshima,Japan,Hiroshima,34.4,132.45,JP
Meerut,India,Meerut,28.99,77.7,IN
Yushu,China,Yushu,44.8249,126.5451,CN
Rongcheng,China,Rongcheng,26.2312,104.0966,CN
Huazhou,China,Huazhou,21.654,110.6294,CN
Yangquan,China,Yangquan,37.8576,113.5762,CN
Haicheng,China,Haicheng,40.8523,122.7474,CN
Yingtan,China,Yingtan,28.2333,117,CN
Huaiyin,China,Huaiyin,33.58,119.03,CN
Wuzhong,China,Wuzhong,37.9874,106.1919,CN
Barranquilla,Colombia,Barranquilla,10.9639,-74.7964,CO
Jabalpur,India,Jabalpur,23.1667,79.9333,IN
Thane,India,Thāne,19.18,72.9633,IN
Zhangye,China,Zhangye,38.9355,100.4553,CN
Rucheng,China,Rucheng,32.3852,120.5634,CN
Nizhniy Novgorod,Russia,Nizhniy Novgorod,56.3269,44.0075,RU
Comayaguela,Honduras,Comayagüela,14.0833,-87.2167,HN
Shaoyang,China,Shaoyang,32.9387,119.8404,CN
Dhanbad,India,Dhanbād,23.7928,86.435,IN
Yichun,China,Yichun,47.7235,128.8893,CN
Laiwu,China,Laiwu,36.1833,117.6667,CN
Jingling,China,Jingling,30.6667,113.1667,CN
Kazan,Russia,Kazan,55.7908,49.1144,RU
Dayan,China,Dayan,26.8808,100.2208,CN
Suwon,South Korea,Suwon,37.2858,127.01,KR
Jiangyin,China,Jiangyin,31.9087,120.2653,CN
Yongcheng,China,Yongcheng,33.9317,116.4459,CN
Calgary,Canada,Calgary,51.05,-114.0667,CA
Can Tho,Vietnam,Cần Thơ,10.0333,105.7833,VN
Abuja,Nigeria,Abuja,9.0556,7.4914,NG
Yiwu,China,Yiwu,29.3081,120.0698,CN
Mandalay,Myanmar,Mandalay,21.9769,96.0869,MM
Beidao,China,Beidao,34.6,105.92,CN
Al Basrah,Iraq,Al Başrah,30.4889,47.81,IQ
Shuangshui,China,Shuangshui,26.5944,104.8333,CN
Vila Velha,Brazil,Vila Velha,3.2167,-51.2167,BR
Allahabad,India,Allahābād,25.455,81.84,IN
Varanasi,India,Vārānasi,25.3189,83.0128,IN
Chelyabinsk,Russia,Chelyabinsk,55.15,61.4,RU
Mombasa,Kenya,Mombasa,-4.05,39.6667,KE
Providence,United States,Providence,41.823,-71.4187,US
Qom,Iran,Qom,34.6461,50.8789,IR
Maiduguri,Nigeria,Maiduguri,11.8333,13.15,NG
Maputo,Mozambique,Maputo,-25.9153,32.5764,MZ
Rosario,Argentina,Rosario,-32.9575,-60.6394,AR
Benin City,Nigeria,Benin City,6.3176,5.6145,NG
Xinyu,China,Xinyu,27.795,114.9242,CN
Pikine,Senegal,Pikine,14.75,-17.4,SN
Ahvaz,Iran,Ahvāz,31.3203,48.6692,IR
Dublin,Ireland,Dublin,53.3497,-6.2603,IE
Jacksonville,United States,Jacksonville,30.3322,-81.6749,US
Medina,Saudi Arabia,Medina,24.4667,39.6,SA
Srinagar,India,Srīnagar,34.0911,74.8061,IN
Omsk,Russia,Omsk,54.9667,73.3833,RU
Cilacap,Indonesia,Cilacap,-7.7167,109.017,ID
Bandar Lampung,Indonesia,Bandar Lampung,-5.4294,105.2625,ID
Samara,Russia,Samara,53.1833,50.1167,RU
Guankou,China,Guankou,28.1417,113.625,CN
Ulsan,South Korea,Ulsan,35.55,129.3167,KR
Dingzhou,China,Dingzhou,38.5158,114.9845,CN
Campinas,Brazil,Campinas,-22.9009,-47.0573,BR
Lianyuan,China,Lianyuan,27.6961,111.6659,CN
Rongcheng,China,Rongcheng,29.8239,112.9019,CN
Kaiyuan,China,Kaiyuan,36.0656,113.8153,CN
Nay Pyi Taw,Myanmar,Nay Pyi Taw,19.7475,96.115,MM
Dakar,Senegal,Dakar,14.7319,-17.4572,SN
Zhuji,China,Zhuji,29.7169,120.2314,CN
Kigali,Rwanda,Kigali,-1.9536,30.0606,RW
Zapopan,Mexico,Zapopan,20.7167,-103.4,MX
Leiyang,China,Leiyang,26.4179,112.8457,CN
Santiago,Dominican Republic,Santiago,19.45,-70.7,DO
Dadukou,China,Dadukou,26.5849,101.7149,CN
Xiantao,China,Xiantao,30.3833,113.4,CN
Amritsar,India,Amritsar,31.6167,74.85,IN
Callao,Peru,Callao,-12.0611,-77.1333,PE
Aligarh,India,Alīgarh,27.88,78.08,IN
Yingchuan,China,Yingchuan,34.1511,113.4733,CN
Tegucigalpa,Honduras,Tegucigalpa,14.0942,-87.2067,HN
Ciudad Nezahualcoyotl,Mexico,Ciudad Nezahualcóyotl,19.41,-99.03,MX
Tripoli,Libya,Tripoli,32.8752,13.1875,LY
Rostov,Russia,Rostov,47.2333,39.7167,RU
Nezahualcoyotl,Mexico,Nezahualcóyotl,19.4,-98.9889,MX
Bhiwandi,India,Bhiwandi,19.3,73.0667,IN
Zhoushan,China,Zhoushan,30.0162,122.0988,CN
Tbilisi,Georgia,Tbilisi,41.7225,44.7925,GE
Ufa,Russia,Ufa,54.7333,55.9667,RU
Fes,Morocco,Fès,34.0433,-5.0033,MA
Sevilla,Spain,Sevilla,37.39,-5.99,ES
Mexicali,Mexico,Mexicali,32.6633,-115.4678,MX
Bien Hoa,Vietnam,Biên Hòa,10.9277,106.8681,VN
Gwalior,India,Gwalior,26.215,78.1931,IN
Ankang,China,Ankang,32.6877,109.0235,CN
Ikare,Nigeria,Ikare,7.5304,5.76,NG
Huambo,Angola,Huambo,-12.7667,15.7333,AO
Hegang,China,Hegang,47.3139,130.2775,CN
Salt Lake City,United States,Salt Lake City,40.7777,-111.9306,US
Bhilai,India,Bhilai,21.2167,81.4333,IN
Yuyao,China,Yuyao,30.0372,121.1546,CN
N'Djamena,Chad,N’Djamena,12.11,15.05,TD
Hanchuan,China,Hanchuan,30.652,113.8274,CN
Gongzhuling,China,Gongzhuling,43.5036,124.8088,CN
Irbid,Jordan,Irbid,32.5556,35.85,JO
Haora,India,Hāora,22.59,88.31,IN
Cologne,Germany,Cologne,50.9422,6.9578,DE
Krasnoyarsk,Russia,Krasnoyarsk,56.0167,92.8667,RU
Yicheng,China,Yicheng,31.3697,119.8239,CN
Sao Goncalo,Brazil,São Gonçalo,-22.8269,-43.0539,BR
Nashville,United States,Nashville,36.1715,-86.7843,US
Yerevan,Armenia,Yerevan,40.1814,44.5144,AM
Ranchi,India,Rānchi,23.3556,85.3347,IN
Nur-Sultan,Kazakhstan,Nur-Sultan,51.1333,71.4333,KZ
Nouakchott,Mauritania,Nouakchott,18.0858,-15.9785,MR
Vereeniging,South Africa,Vereeniging,-26.6736,27.9319,ZA
Richmond,United States,Richmond,37.5295,-77.4756,US
Sao Luis,Brazil,São Luís,-2.53,-44.3028,BR
San Pedro Sula,Honduras,San Pedro Sula,15.5,-88.0333,HN
Taixing,China,Taixing,32.1724,120.0142,CN
Memphis,United States,Memphis,35.1046,-89.9773,US
Goyang,South Korea,Goyang,37.6564,126.835,KR
Bezwada,India,Bezwāda,16.5167,80.6167,IN
Edmonton,Canada,Edmonton,53.5344,-113.4903,CA
Mizhou,China,Mizhou,35.99,119.3801,CN
Tunis,Tunisia,Tunis,36.8008,10.18,TN
Xishan,China,Xishan,27.6609,113.4946,CN
Ezhou,China,Ezhou,30.3972,114.8842,CN
Barquisimeto,Venezuela,Barquisimeto,10.0678,-69.3467,VE
Sendai,Japan,Sendai,38.2683,140.8694,JP
Voronezh,Russia,Voronezh,51.6717,39.2106,RU
Perm,Russia,Perm,58.0139,56.2489,RU
Changwon,South Korea,Changwon,35.2281,128.6811,KR
Zhongwei,China,Zhongwei,37.5139,105.1884,CN
Shouguang,China,Shouguang,36.8833,118.7333,CN
Bogor,Indonesia,Bogor,-6.6,106.8,ID
Raleigh,United States,Raleigh,35.8325,-78.6435,US
Cartagena,Colombia,Cartagena,10.4236,-75.5253,CO
Chandigarh,India,Chandīgarh,30.7353,76.7911,IN
Bishkek,Kyrgyzstan,Bishkek,42.8667,74.5667,KG
Matola,Mozambique,Matola,-25.9667,32.4667,MZ
Ogbomoso,Nigeria,Ogbomoso,8.1333,4.25,NG
Ashgabat,Turkmenistan,Ashgabat,37.95,58.3833,TM
Maceio,Brazil,Maceió,-9.6658,-35.735,BR
Niamey,Niger,Niamey,13.5086,2.1111,NE
Managua,Nicaragua,Managua,12.15,-86.2667,NI
Patam,Indonesia,Patam,1.0678,104.0167,ID
Tekirdag,Turkey,Tekirdağ,40.9833,27.5167,TR
Shubra al Khaymah,Egypt,Shubrā al Khaymah,30.1286,31.2422,EG
Linhai,China,Linhai,28.8523,121.1409,CN
Monrovia,Liberia,Monrovia,6.3106,-10.8047,LR
Wafangdian,China,Wafangdian,39.6271,121.9972,CN
Zhongxiang,China,Zhongxiang,31.169,112.5853,CN
Odesa,Ukraine,Odesa,46.4775,30.7326,UA
Shymkent,Kazakhstan,Shymkent,42.3,69.6,KZ
New Orleans,United States,New Orleans,30.0687,-89.9288,US
Thu Duc,Vietnam,Thủ Đức,10.8199,106.7909,VN
Volgograd,Russia,Volgograd,48.7086,44.5147,RU
Port-au-Prince,Haiti,Port-au-Prince,18.5425,-72.3386,HT
Islamabad,Pakistan,Islamabad,33.6989,73.0369,PK
Mysore,India,Mysore,12.3086,76.6531,IN
Xinyi,China,Xinyi,22.3559,110.9369,CN
Kathmandu,Nepal,Kathmandu,27.7167,85.3667,NP
Raipur,India,Raipur,21.2379,81.6337,IN
Nice,France,Nice,43.7034,7.2663,FR
Arequipa,Peru,Arequipa,-16.3988,-71.5369,PE
Port Harcourt,Nigeria,Port Harcourt,4.75,7,NG
Louisville,United States,Louisville,38.1663,-85.6485,US
Zaoyang,China,Zaoyang,32.1287,112.7581,CN
Shuizhai,China,Shuizhai,33.4433,114.8994,CN
Dnipro,Ukraine,Dnipro,48.45,34.9833,UA
Kota,India,Kota,25.18,75.83,IN
Quetta,Pakistan,Quetta,30.192,67.007,PK
Abu Dhabi,United Arab Emirates,Abu Dhabi,24.4781,54.3686,AE
Stockholm,Sweden,Stockholm,59.3294,18.0686,SE
Ottawa,Canada,Ottawa,45.4247,-75.695,CA
Asmara,Eritrea,Asmara,15.3333,38.9167,ER
Freetown,Sierra Leone,Freetown,8.4833,-13.2331,SL
Jerusalem,Israel,Jerusalem,31.7833,35.2167,IL
Bangui,Central African Republic,Bangui,4.3732,18.5628,CF
Panama City,Panama,Panama City,9,-79.5,PA
Amsterdam,Netherlands,Amsterdam,52.3667,4.8833,NL
Lome,Togo,Lomé,6.1319,1.2228,TG
Libreville,Gabon,Libreville,0.3901,9.4544,GA
Zagreb,Croatia,Zagreb,45.8,15.95,HR
Dushanbe,Tajikistan,Dushanbe,38.5731,68.7864,TJ
Lilongwe,Malawi,Lilongwe,-13.9833,33.7833,MW
Cotonou,Benin,Cotonou,6.4,2.52,BJ
Vientiane,Laos,Vientiane,17.9667,102.6,LA
Colombo,Sri Lanka,Colombo,6.9167,79.8333,LK
Pretoria,South Africa,Pretoria,-25.7464,28.1881,ZA
Winnipeg,Canada,Winnipeg,49.8844,-97.1464,CA
Quebec City,Canada,Quebec City,46.8139,-71.2081,CA
Oslo,Norway,Oslo,59.9111,10.7528,NO
Athens,Greece,Athens,37.9842,23.7281,GR
Bujumbura,Burundi,Bujumbura,-3.3825,29.3611,BI
Helsinki,Finland,Helsinki,60.1756,24.9342,FI
Skopje,Macedonia,Skopje,41.9833,21.4333,MK
Chisinau,Moldova,Chisinau,47.0228,28.8353,MD
Riga,Latvia,Riga,56.9475,24.1069,LV
Copenhagen,Denmark,Copenhagen,55.6761,12.5689,DK
Kingston,Jamaica,Kingston,17.9714,-76.7931,JM
Rabat,Morocco,Rabat,34.0253,-6.8361,MA
Vilnius,Lithuania,Vilnius,54.6833,25.2833,LT
San Salvador,El Salvador,San Salvador,13.6989,-89.1914,SV
Djibouti,Djibouti,Djibouti,11.595,43.1481,DJ
Lisbon,Portugal,Lisbon,38.7452,-9.1604,PT
Kitchener,Canada,Kitchener,43.4186,-80.4728,CA
Tallinn,Estonia,Tallinn,59.4372,24.745,EE
Cape Town,South Africa,Cape Town,-33.925,18.425,ZA
Bratislava,Slovakia,Bratislava,48.1447,17.1128,SK
Tirana,Albania,Tirana,41.33,19.82,AL
Canberra,Australia,Canberra,-35.2931,149.1269,AU
Wellington,New Zealand,Wellington,-41.2889,174.7772,NZ
Beirut,Lebanon,Beirut,33.8869,35.5131,LB
Dodoma,Tanzania,Dodoma,-6.1835,35.746,TZ
Halifax,Canada,Halifax,44.6475,-63.5906,CA
Bissau,Guinea-Bissau,Bissau,11.8592,-15.5956,GW
Juba,South Sudan,Juba,4.85,31.6,SS
Port Moresby,Papua New Guinea,Port Moresby,-9.4789,147.1494,PG
Yamoussoukro,Côte D’Ivoire,Yamoussoukro,6.8161,-5.2742,CI
Victoria,Canada,Victoria,48.4283,-123.3647,CA
Maseru,Lesotho,Maseru,-29.31,27.48,LS
Nicosia,Cyprus,Nicosia,35.1725,33.365,CY
Windhoek,Namibia,Windhoek,-22.57,17.0836,NA
Porto-Novo,Benin,Porto-Novo,6.4833,2.6167,BJ
Sucre,Bolivia,Sucre,-19.0431,-65.2592,BO
San Jose,Costa Rica,San José,9.9333,-84.0833,CR
Ljubljana,Slovenia,Ljubljana,46.05,14.5167,SI
Sarajevo,Bosnia And Herzegovina,Sarajevo,43.8667,18.4167,BA
Nassau,The Bahamas,Nassau,25.0667,-77.3333,BS
Bloemfontein,South Africa,Bloemfontein,-29.1,26.2167,ZA
Fort-de-France,Martinique,Fort-de-France,14.6104,-61.08,MQ
Gaborone,Botswana,Gaborone,-24.6569,25.9086,BW
Paramaribo,Suriname,Paramaribo,5.8667,-55.1667,SR
Dili,Timor-Leste,Dili,-8.5586,125.5736,TL
Pristina,Kosovo,Pristina,42.6667,21.1667,XK
Georgetown,Guyana,Georgetown,6.7833,-58.1667,GY
Malabo,Equatorial Guinea,Malabo,3.7521,8.7737,GQ
Gibraltar,Gibraltar,Gibraltar,36.1324,-5.3781,GI
Saint-Denis,Reunion,Saint-Denis,-20.8789,55.4481,RE
Male,Maldives,Male,4.175,73.5083,MV
Podgorica,Montenegro,Podgorica,42.4397,19.2661,ME
Manama,Bahrain,Manama,26.225,50.5775,BH
Port Louis,Mauritius,Port Louis,-20.1667,57.5,MU
Willemstad,Curaçao,Willemstad,12.108,-68.935,CW
New Delhi,India,New Delhi,28.7,77.2,IN
Bern,Switzerland,Bern,46.948,7.4474,CH
Papeete,French Polynesia,Papeete,-17.5334,-149.5667,PF
Reykjavik,Iceland,Reykjavík,64.1475,-21.935,IS
Praia,Cabo Verde,Praia,14.9177,-23.5092,CV
Luxembourg,Luxembourg,Luxembourg,49.6106,6.1328,LU
Sri Jayewardenepura Kotte,Sri Lanka,Sri Jayewardenepura Kotte,6.9,79.9164,LK
Bridgetown,Barbados,Bridgetown,13.0975,-59.6167,BB
Moroni,Comoros,Moroni,-11.7036,43.2536,KM
Thimphu,Bhutan,Thimphu,27.4833,89.6333,BT
Mbabane,Swaziland,Mbabane,-26.3208,31.1617,SZ
Noumea,New Caledonia,Nouméa,-22.2625,166.4443,NC
Honiara,Solomon Islands,Honiara,-9.4333,159.95,SB
Suva,Fiji,Suva,-18.1333,178.4333,FJ
Castries,Saint Lucia,Castries,14.0167,-60.9833,LC
Cayenne,French Guiana,Cayenne,4.933,-52.33,GF
Sao Tome,Sao Tome And Principe,São Tomé,0.3333,6.7333,ST
Port-Vila,Vanuatu,Port-Vila,-17.7333,168.3167,VU
Hamilton,Bermuda,Hamilton,32.2942,-64.7839,BM
Bandar Seri Begawan,Brunei,Bandar Seri Begawan,4.9167,114.9167,BN
Monaco,Monaco,Monaco,43.7396,7.4069,MC
Gitega,Burundi,Gitega,-3.4264,29.9306,BI
Port of Spain,Trinidad And Tobago,Port of Spain,10.6667,-61.5167,TT
Apia,Samoa,Apia,-13.8333,-171.8333,WS
Douglas,Isle Of Man,Douglas,54.15,-4.4819,IM
Oranjestad,Aruba,Oranjestad,12.5186,-70.0358,AW
Saint Helier,Jersey,Saint Helier,49.1833,-2.1167,JE
Vaduz,Liechtenstein,Vaduz,47.1415,9.5215,LI
Banjul,The Gambia,Banjul,13.4531,-16.5775,GM
Mamoudzou,Mayotte,Mamoudzou,-12.7871,45.275,YT
Majuro,Marshall Islands,Majuro,7.0918,171.3802,MH
Tarawa,Kiribati,Tarawa,1.3382,173.0176,KI
George Town,Cayman Islands,George Town,19.2866,-81.3744,KY
Victoria,Seychelles,Victoria,-4.6236,55.4544,SC
Kingstown,Saint Vincent And The Grenadines,Kingstown,13.1667,-61.2333,VC
Saint John's,Antigua And Barbuda,Saint John’s,17.1211,-61.8447,AG
Nuku`alofa,Tonga,Nuku‘alofa,-21.1347,-175.2083,TO
Andorra la Vella,Andorra,Andorra la Vella,42.5,1.5,AD
Nuuk,Greenland,Nuuk,64.175,-51.7333,GL
Belmopan,Belize,Belmopan,17.25,-88.7675,BZ
Roseau,Dominica,Roseau,15.3,-61.3833,DM
Basseterre,Saint Kitts And Nevis,Basseterre,17.2983,-62.7342,KN
Torshavn,Faroe Islands,Tórshavn,62,-6.7833,FO
Pago Pago,American Samoa,Pago Pago,-14.274,-170.7046,AS
Valletta,Malta,Valletta,35.8978,14.5125,MT
Gaza,Gaza Strip,Gaza,31.5069,34.456,XG
Grand Turk,Turks And Caicos Islands,Grand Turk,21.4664,-71.136,TC
Palikir,Federated States Of Micronesia,Palikir,6.9178,158.185,FM
Funafuti,Tuvalu,Funafuti,-8.5167,179.2167,TV
Lobamba,Swaziland,Lobamba,-26.4465,31.2064,SZ
Avarua,Cook Islands,Avarua,-21.207,-159.771,CK
Saint George's,Grenada,Saint George’s,12.0444,-61.7417,GD
San Marino,San Marino,San Marino,43.932,12.4484,SM
Al Quds,West Bank,Al Quds,31.7764,35.2269,XW
Capitol Hill,Northern Mariana Islands,Capitol Hill,15.2137,145.7546,MP
Basse-Terre,Guadeloupe,Basse-Terre,16,-61.7167,GP
Stanley,Falkland Islands (Islas Malvinas),Stanley,-51.7,-57.85,FK
Vatican City,Vatican City,Vatican City,41.9,12.4478,VA
Alofi,Niue,Alofi,-19.056,-169.921,NU
Hagta,Guam,Hagåtña,13.4745,144.7504,GU
Jamestown,Saint Helena Ascension And Tristan Da Cunha,Jamestown,-15.9251,-5.7179,SH
Marigot,Saint Martin,Marigot,18.0706,-63.0847,MF
Philipsburg,Sint Maarten,Philipsburg,18.0256,-63.0492,SX
Road Town,British Virgin Islands,Road Town,18.4167,-64.6167,VG
Gustavia,Saint Barthelemy,Gustavia,17.8958,-62.8508,BL
Saint-Pierre,Saint Pierre And Miquelon,Saint-Pierre,46.7811,-56.1764,PM
The Valley,Anguilla,The Valley,18.2167,-63.05,AI
Mata-Utu,Wallis And Futuna,Mata-Utu,-13.2825,-176.1736,WF
Kingston,Norfolk Island,Kingston,-29.0569,167.9617,NF
Ngerulmud,Palau,Ngerulmud,7.5006,134.6242,PW
Tifariti,Morocco,Tifariti,26.0928,-10.6089,MA
Tifariti,Western Sahara,Tifariti,26.0928,-10.6089,EH
Longyearbyen,Svalbard,Longyearbyen,78.2167,15.6333,XR
Adamstown,Pitcairn Islands,Adamstown,-25.0667,-130.0833,PN
Flying Fish Cove,Christmas Island,Flying Fish Cove,-10.4167,105.7167,CX
Bareilly,India,Bareilly,28.364,79.415,IN
Quang Ha,Vietnam,Quảng Hà,16.06,108.25,VN
Soacha,Colombia,Soacha,4.5781,-74.2144,CO
Kitaku,Japan,Kitaku,33.8704,130.82,JP
Jodhpur,India,Jodhpur,26.2918,73.0168,IN
Xingcheng,China,Xingcheng,24.1681,115.6669,CN
Dongtai,China,Dongtai,32.8534,120.3037,CN
Yingcheng,China,Yingcheng,24.1878,113.4042,CN
Al Mansurah,Egypt,Al Manşūrah,31.05,31.3833,EG
Glasgow,United Kingdom,Glasgow,55.8609,-4.2514,GB
Chiba,Japan,Chiba,35.6,140.1,JP
Luocheng,China,Luocheng,22.7645,111.5745,CN
Danyang,China,Danyang,31.9948,119.575,CN
Natal,Brazil,Natal,-6.9838,-60.2699,BR
Zhaodong,China,Zhaodong,46.0635,125.9773,CN
Nada,China,Nada,19.5,109.5833,CN
Xibeijie,China,Xibeijie,39.737,98.5049,CN
Kirkuk,Iraq,Kirkuk,35.4667,44.4,IQ
Naples,Italy,Naples,40.8333,14.25,IT
Wuchuan,China,Wuchuan,21.4283,110.7749,CN
Huilong,China,Huilong,31.8131,121.6574,CN
Oklahoma City,United States,Oklahoma City,35.4676,-97.5136,US
Toulouse,France,Toulouse,43.6045,1.444,FR
Malaga,Spain,Málaga,36.7194,-4.42,ES
Denizli,Turkey,Denizli,37.7731,29.0878,TR
Dispur,India,Dispur,26.15,91.77,IN
Coimbatore,India,Coimbatore,11,76.9667,IN
Guwahati,India,Guwāhāti,26.1667,91.7667,IN
Songnam,South Korea,Sŏngnam,37.4386,127.1378,KR
Taishan,China,Taishan,22.2486,112.785,CN
Solapur,India,Solāpur,17.6833,75.9167,IN
Tangier,Morocco,Tangier,35.7767,-5.8039,MA
Anqiu,China,Anqiu,36.3619,119.1072,CN
Feicheng,China,Feicheng,36.186,116.772,CN
Meishan,China,Meishan,34.1736,112.839,CN
Kisangani,Congo (Kinshasa),Kisangani,0.5153,25.1911,CD
Khartoum North,Sudan,Khartoum North,15.6333,32.6333,SD
Aguascalientes,Mexico,Aguascalientes,21.876,-102.296,MX
Marrakech,Morocco,Marrakech,31.6295,-7.9811,MA
Donetsk,Ukraine,Donetsk,48.0089,37.8042,UA
Taihecun,China,Taihecun,45.768,131.0063,CN
Trujillo,Peru,Trujillo,-8.1119,-79.0289,PE
Cebu City,Philippines,Cebu City,10.3,123.9,PH
Taihe,China,Taihe,30.8706,105.3784,CN
Bridgeport,United States,Bridgeport,41.1918,-73.1953,US
Antwerp,Belgium,Antwerp,51.2206,4.4003,BE
Trichinopoly,India,Trichinopoly,10.8269,78.6928,IN
Xin'an,China,Xin’an,34.3662,118.3369,CN
Padang,Indonesia,Padang,-0.9556,100.3606,ID
Qingzhou,China,Qingzhou,36.6967,118.4797,CN
Buffalo,United States,Buffalo,42.9016,-78.8487,US
Lichuan,China,Lichuan,30.2965,108.9378,CN
Daye,China,Daye,30.1003,114.9699,CN
Fort Worth,United States,Fort Worth,32.7811,-97.3473,US
Hengzhou,China,Hengzhou,22.6896,109.2674,CN
Campo Grande,Brazil,Campo Grande,-20.4686,-54.6222,BR
Zhuanghe,China,Zhuanghe,39.6896,122.9664,CN
Hartford,United States,Hartford,41.7661,-72.6834,US
Ad Dammam,Saudi Arabia,Ad Dammām,26.4333,50.1,SA
Bucheon,South Korea,Bucheon,37.4989,126.7831,KR
Lhasa,China,Lhasa,29.65,91.1,CN
Homs,Syria,Homs,34.7333,36.7167,SY
Jiaozhou,China,Jiaozhou,36.2481,119.9625,CN
Merida,Mexico,Mérida,20.97,-89.62,MX
Yangchun,China,Yangchun,22.1717,111.7846,CN
Concepcion,Chile,Concepción,-36.82,-73.0445,CL
Dengtalu,China,Dengtalu,36.08,114.35,CN
Hubli,India,Hubli,15.36,75.125,IN
Abeokuta,Nigeria,Abeokuta,7.15,3.35,NG
Tucson,United States,Tucson,32.1545,-110.8782,US
Krasnodar,Russia,Krasnodar,45.0333,38.9833,RU
Natal,Brazil,Natal,-5.795,-35.2089,BR
Chihuahua,Mexico,Chihuahua,28.6353,-106.0889,MX
Klang,Malaysia,Klang,3.0333,101.45,MY
Turin,Italy,Turin,45.0667,7.7,IT
Jos,Nigeria,Jos,9.9333,8.8833,NG
Laiyang,China,Laiyang,36.9758,120.7136,CN
Jalandhar,India,Jalandhar,31.3256,75.5792,IN
Sale,Morocco,Sale,34.05,-6.8167,MA
Marseille,France,Marseille,43.2964,5.37,FR
Kaifeng Chengguanzhen,China,Kaifeng Chengguanzhen,34.85,114.35,CN
Eskisehir,Turkey,Eskişehir,39.7767,30.5206,TR
Gaomi,China,Gaomi,36.3833,119.75,CN
Teresina,Brazil,Teresina,-5.0949,-42.8042,BR
Ipoh,Malaysia,Ipoh,4.6,101.07,MY
Hai'an,China,Hai’an,32.532,120.4604,CN
Liverpool,United Kingdom,Liverpool,53.4,-2.9833,GB
Zamboanga City,Philippines,Zamboanga City,6.9167,122.0833,PH
Oran,Algeria,Oran,35.6969,-0.6331,DZ
Southampton,United Kingdom,Southampton,50.9,-1.4,GB
Weichanglu,China,Weichanglu,37.1792,119.9333,CN
Pekanbaru,Indonesia,Pekanbaru,0.5333,101.45,ID
Portsmouth,United Kingdom,Portsmouth,50.8058,-1.0872,GB
Leping,China,Leping,28.9632,117.1203,CN
Kermanshah,Iran,Kermānshāh,34.3167,47.0686,IR
Hailun,China,Hailun,47.4585,126.9632,CN
Macheng,China,Macheng,31.1817,115.0189,CN
Ilorin,Nigeria,Ilorin,8.5,4.55,NG
Omaha,United States,Omaha,41.2627,-96.0522,US
Yuci,China,Yuci,37.6804,112.73,CN
Saratov,Russia,Saratov,51.5333,46,RU
Sao Bernardo do Campo,Brazil,São Bernardo do Campo,-23.6939,-46.565,BR
Erbil,Iraq,Erbil,36.1911,44.0094,IQ
Iguacu,Brazil,Iguaçu,-22.74,-43.47,BR
El Paso,United States,El Paso,31.8479,-106.4309,US
Denpasar,Indonesia,Denpasar,-8.6667,115.2167,ID
Dehui,China,Dehui,44.5323,125.6965,CN
Naucalpan de Juarez,Mexico,Naucalpan de Juárez,19.4753,-99.2378,MX
Bhubaneshwar,India,Bhubaneshwar,20.2644,85.8281,IN
Tongchuan,China,Tongchuan,34.9057,108.9422,CN
Cheongju,South Korea,Cheongju,36.6372,127.4897,KR
Warri,Nigeria,Warri,5.5167,5.75,NG
Pointe-Noire,Congo (Brazzaville),Pointe-Noire,-4.7889,11.8653,CG
Rongjiawan,China,Rongjiawan,29.1409,113.1087,CN
Butterworth,Malaysia,Butterworth,5.3942,100.3664,MY
Bhayandar,India,Bhayandar,19.3,72.85,IN
San Luis Potosi,Mexico,San Luis Potosí,22.1511,-100.9761,MX
Renqiu,China,Renqiu,38.7094,116.1008,CN
Joao Pessoa,Brazil,João Pessoa,-7.12,-34.88,BR
Toluca,Mexico,Toluca,19.2925,-99.6569,MX
Honolulu,United States,Honolulu,21.3294,-157.846,US
Queretaro,Mexico,Querétaro,20.5875,-100.3928,MX
Xindi,China,Xindi,29.8182,113.4653,CN
Wu'an,China,Wu’an,36.6941,114.1847,CN
Hermosillo,Mexico,Hermosillo,29.0989,-110.9542,MX
Wutong,China,Wutong,30.6326,120.5474,CN
Taguig City,Philippines,Taguig City,14.5167,121.05,PH
Saltillo,Mexico,Saltillo,25.4333,-101,MX
Gaoyou,China,Gaoyou,32.7847,119.4432,CN
Hejian,China,Hejian,38.4451,116.0897,CN
Yiyang,China,Yiyang,26.4103,112.3913,CN
Puxi,China,Puxi,35.2125,114.735,CN
Zijinglu,China,Zijinglu,34.7513,112.9854,CN
Trabzon,Turkey,Trabzon,41.005,39.7225,TR
Xiashi,China,Xiashi,30.5333,120.6833,CN
Valencia,Spain,Valencia,39.47,-0.3764,ES
Dongyang,China,Dongyang,29.2785,120.2282,CN
McAllen,United States,McAllen,26.2273,-98.2471,US
Abaete,Brazil,Abaeté,-19.1583,-45.4522,BR
Palermo,Colombia,Palermo,2.8883,-75.4339,CO
Johor Bahru,Malaysia,Johor Bahru,1.4556,103.7611,MY
Qingping,China,Qingping,34.538,113.3796,CN
Morelia,Mexico,Morelia,19.7683,-101.1894,MX
Niigata,Japan,Niigata,37.9161,139.0364,JP
Pasig City,Philippines,Pasig City,14.575,121.0833,PH
Moradabad,India,Morādābād,28.8418,78.7568,IN
Hamamatsu,Japan,Hamamatsu,34.7167,137.7333,JP
Culiacan,Mexico,Culiacán,24.8069,-107.3939,MX
Xiangxiang,China,Xiangxiang,27.7389,112.5223,CN
Malang,Indonesia,Malang,-7.98,112.62,ID
Xingyi,China,Xingyi,25.091,104.9011,CN
Chaohucun,China,Chaohucun,31.6783,117.7353,CN
Fuyang,China,Fuyang,30.0533,119.9519,CN
Antipolo,Philippines,Antipolo,14.5842,121.1763,PH
Lubango,Angola,Lubango,-14.9167,13.5,AO
Nottingham,United Kingdom,Nottingham,52.95,-1.15,GB
Cencheng,China,Cencheng,22.9297,111.0186,CN
Krakow,Poland,Kraków,50.0614,19.9372,PL
Erzurum,Turkey,Erzurum,39.9097,41.2756,TR
Hempstead,United States,Hempstead,40.6629,-73.6089,US
Al `Ayn,United Arab Emirates,Al ‘Ayn,24.2075,55.7447,AE
Songzi,China,Songzi,30.1772,111.7732,CN
Laixi,China,Laixi,36.8667,120.5333,CN
Bahawalpur,Pakistan,Bahawalpur,29.3956,71.6722,PK
Zhongba,China,Zhongba,31.7761,104.7406,CN
Qingnian,China,Qingnian,36.8494,115.7061,CN
Albuquerque,United States,Albuquerque,35.1053,-106.6464,US
Kaduna,Nigeria,Kaduna,10.5231,7.4403,NG
Tlalnepantla,Mexico,Tlalnepantla,19.5367,-99.1947,MX
Xinhualu,China,Xinhualu,34.3962,113.7249,CN
Guangshui,China,Guangshui,31.6189,113.8229,CN
Frankfurt,Germany,Frankfurt,50.1136,8.6797,DE
Samarinda,Indonesia,Samarinda,-0.5022,117.1536,ID
Changhua,Taiwan,Changhua,24.0667,120.5333,TW
Pietermaritzburg,South Africa,Pietermaritzburg,-29.5833,30.4167,ZA
Hungnam,North Korea,Hŭngnam,39.8231,127.6232,KP
Kolhapur,India,Kolhāpur,16.7,74.2333,IN
Ciudad Guayana,Venezuela,Ciudad Guayana,8.3596,-62.6517,VE
Cucuta,Colombia,Cúcuta,7.9075,-72.5047,CO
Licheng,China,Licheng,31.4174,119.4786,CN
Thiruvananthapuram,India,Thiruvananthapuram,8.5,76.8997,IN
Tyumen,Russia,Tyumen,57.15,65.5333,RU
Cancun,Mexico,Cancún,21.1606,-86.8475,MX
Zaporizhzhia,Ukraine,Zaporizhzhia,47.8378,35.1383,UA
Tlajomulco de Zuniga,Mexico,Tlajomulco de Zúñiga,20.4736,-103.4431,MX
Chengguan,China,Chengguan,35.4599,113.7975,CN
Kumamoto,Japan,Kumamoto,32.8031,130.7078,JP
Nehe,China,Nehe,48.48,124.8738,CN
Sokoto,Nigeria,Sokoto,13.0622,5.2339,NG
Birmingham,United States,Birmingham,33.5277,-86.7987,US
Zunhua,China,Zunhua,40.1881,117.9593,CN
Orumiyeh,Iran,Orūmīyeh,37.5486,45.0675,IR
Oyo,Nigeria,Oyo,7.8333,3.9333,NG
Wugang,China,Wugang,26.7345,110.6293,CN
Shuangqiao,China,Shuangqiao,35.0833,112.5833,CN
Rennes,France,Rennes,48.1147,-1.6794,FR
Sizhan,China,Sizhan,39.0099,106.3694,CN
Comodoro Rivadavia,Argentina,Comodoro Rivadavia,-45.8667,-67.5,AR
Langzhong,China,Langzhong,31.5833,105.972,CN
Bristol,United Kingdom,Bristol,51.45,-2.5833,GB
Qian'an,China,Qian’an,40.0059,118.6973,CN
Lviv,Ukraine,Lviv,49.8419,24.0315,UA
Zouping,China,Zouping,36.8625,117.7424,CN
Bremen,Germany,Bremen,53.1153,8.7975,DE
Reynosa,Mexico,Reynosa,26.0922,-98.2778,MX
An Najaf,Iraq,An Najaf,32.029,44.3396,IQ
Sagamihara,Japan,Sagamihara,35.5667,139.3667,JP
Guli,China,Guli,28.9008,120.0284,CN
Sarasota,United States,Sarasota,27.3386,-82.5431,US
Mississauga,Canada,Mississauga,43.6,-79.65,CA
Lingbao Chengguanzhen,China,Lingbao Chengguanzhen,34.5221,110.8786,CN
Okayama,Japan,Okayama,34.65,133.9167,JP
Anlu,China,Anlu,31.2575,113.6783,CN
Wusong,China,Wusong,30.9333,117.7667,CN
Dayton,United States,Dayton,39.7797,-84.1998,US
Changsha,China,Changsha,22.3762,112.6877,CN
Enugu,Nigeria,Enugu,6.4403,7.4942,NG
George Town,Malaysia,George Town,5.4145,100.3292,MY
Jaboatao,Brazil,Jaboatão,-8.1803,-35.0014,BR
Santo Andre,Brazil,Santo André,-23.6572,-46.5333,BR
Xichang,China,Xichang,27.8983,102.2706,CN
Soledad,Colombia,Soledad,10.92,-74.77,CO
Chengxiang,China,Chengxiang,31.4515,121.1043,CN
Tolyatti,Russia,Tolyatti,53.5167,49.4167,RU
Saharanpur,India,Sahāranpur,29.964,77.546,IN
Warangal,India,Warangal,17.9756,79.6011,IN
Edogawa,Japan,Edogawa,35.6924,139.8757,JP
Osasco,Brazil,Osasco,-23.5328,-46.7919,BR
Dashiqiao,China,Dashiqiao,40.6328,122.5021,CN
Latakia,Syria,Latakia,35.5236,35.7917,SY
Rochester,United States,Rochester,43.168,-77.6162,US
Fresno,United States,Fresno,36.7831,-119.7941,US
Banjarmasin,Indonesia,Banjarmasin,-3.3333,114.5833,ID
Salem,India,Salem,11.65,78.1667,IN
Uberlandia,Brazil,Uberlândia,-18.9189,-48.2769,BR
Shishi,China,Shishi,24.7355,118.6434,CN
Grenoble,France,Grenoble,45.1715,5.7224,FR
Guadalupe,Mexico,Guadalupe,25.6775,-100.2597,MX
Adachi,Japan,Adachi,35.7833,139.8,JP
Qianxi,China,Qianxi,27.0284,106.0327,CN
Aracaju,Brazil,Aracaju,-10.9111,-37.0717,BR
Bauchi,Nigeria,Bauchi,10.3158,9.8442,NG
Hamilton,Canada,Hamilton,43.2567,-79.8692,CA
Lodz,Poland,Łódź,51.7769,19.4547,PL
Miluo Chengguanzhen,China,Miluo Chengguanzhen,28.8049,113.0745,CN
Gaizhou,China,Gaizhou,40.4019,122.3499,CN
Malegaon,India,Mālegaon,20.55,74.55,IN
Karbala',Iraq,Karbalā’,32.6167,44.0333,IQ
Leling,China,Leling,37.7333,117.2167,CN
Sao Jose dos Campos,Brazil,São José dos Campos,-23.1789,-45.8869,BR
Jianshe,China,Jianshe,34.2189,113.7693,CN
Acapulco de Juarez,Mexico,Acapulco de Juárez,16.8636,-99.8825,MX
Sheffield,United Kingdom,Sheffield,53.3833,-1.4667,GB
Shizuoka,Japan,Shizuoka,34.9756,138.3825,JP
Jingcheng,China,Jingcheng,32.0058,120.2547,CN
City of Paranaque,Philippines,City of Parañaque,14.4667,121.0167,PH
Kochi,India,Kochi,9.9667,76.2833,IN
Allentown,United States,Allentown,40.5961,-75.4756,US
Tasikmalaya,Indonesia,Tasikmalaya,-7.3333,108.2,ID
Macau,Macau,Macau,22.203,113.545,MO
Torreon,Mexico,Torreón,25.5394,-103.4486,MX
Xinmin,China,Xinmin,41.9952,122.8224,CN
Shanhu,China,Shanhu,29.5908,120.8176,CN
Zhongshu,China,Zhongshu,27.8116,106.4133,CN
Xigaze,China,Xigazê,29.2649,88.8799,CN
Gold Coast,Australia,Gold Coast,-28.0167,153.4,AU
Cagayan de Oro,Philippines,Cagayan de Oro,8.4833,124.65,PH
Gorakhpur,India,Gorakhpur,26.7611,83.3667,IN
Pinghu,China,Pinghu,30.7005,121.0104,CN
Palermo,Italy,Palermo,38.1157,13.3613,IT
Guankou,China,Guankou,30.9933,103.624,CN
Tulsa,United States,Tulsa,36.1284,-95.9042,US
Yatou,China,Yatou,37.1653,122.4867,CN
Songyang,China,Songyang,34.4161,113.0424,CN
Cape Coral,United States,Cape Coral,26.6446,-81.9956,US
Ch'ongjin,North Korea,Ch’ŏngjin,41.8,129.7831,KP
Puyang Chengguanzhen,China,Puyang Chengguanzhen,35.7004,114.98,CN
Qionghu,China,Qionghu,28.8417,112.3595,CN
Ribeirao Preto,Brazil,Ribeirão Prêto,-21.1783,-47.8067,BR
Dasmarinas,Philippines,Dasmariñas,14.3294,120.9367,PH
Wenchang,China,Wenchang,31.054,116.9507,CN
Shulan,China,Shulan,44.4167,126.95,CN
Catia La Mar,Venezuela,Catia La Mar,10.6,-67.0333,VE
Sargodha,Pakistan,Sargodha,32.0836,72.6711,PK
Bouake,Côte D’Ivoire,Bouaké,7.6833,-5.0331,CI
Sialkot City,Pakistan,Sialkot City,32.5,74.5333,PK
As Sulaymaniyah,Iraq,As Sulaymānīyah,35.55,45.4333,IQ
Hwasu-dong,South Korea,Hwasu-dong,37.2,126.7667,KR
Jeonju,South Korea,Jeonju,35.8219,127.1489,KR
Durango,Mexico,Durango,24.0167,-104.6667,MX
Shimoga,India,Shimoga,13.9304,75.56,IN
Ansan,South Korea,Ansan,37.3236,126.8219,KR
Bulawayo,Zimbabwe,Bulawayo,-20.1667,28.5667,ZW
Xiping,China,Xiping,25.6005,103.8166,CN
Sanhe,China,Sanhe,39.9808,117.0701,CN
Guntur,India,Guntūr,16.3,80.45,IN
Dali,China,Dali,25.7003,100.1564,CN
Concord,United States,Concord,37.9722,-122.0016,US
Contagem,Brazil,Contagem,-19.9319,-44.0539,BR
Tiruppur,India,Tiruppūr,11.1075,77.3398,IN
Ch'onan,South Korea,Ch’ŏnan,36.8064,127.1522,KR
Zaragoza,Spain,Zaragoza,41.6483,-0.883,ES
Dusseldorf,Germany,Düsseldorf,51.2311,6.7724,DE
Izhevsk,Russia,Izhevsk,56.85,53.2167,RU
Guixi,China,Guixi,28.2861,117.2083,CN
Sorocaba,Brazil,Sorocaba,-23.5019,-47.4578,BR
Villahermosa,Mexico,Villahermosa,17.9892,-92.9281,MX
Petaling Jaya,Malaysia,Petaling Jaya,3.1073,101.6067,MY
Tengyue,China,Tengyue,25.0208,98.4972,CN
Wuxue,China,Wuxue,29.8518,115.5539,CN
Utrecht,Netherlands,Utrecht,52.0908,5.1222,NL
Kikwit,Congo (Kinshasa),Kikwit,-5.0333,18.8167,CD
Colorado Springs,United States,Colorado Springs,38.8674,-104.7606,US
Valenzuela,Philippines,Valenzuela,14.7,120.9833,PH
Qufu,China,Qufu,35.6,116.9833,CN
Gaobeidian,China,Gaobeidian,39.3257,115.8678,CN
Ruiming,China,Ruiming,25.8833,116.0333,CN
Wroclaw,Poland,Wrocław,51.11,17.0325,PL
Rasht,Iran,Rasht,37.2833,49.6,IR
Nantes,France,Nantes,47.2181,-1.5528,FR
Stuttgart,Germany,Stuttgart,48.7761,9.1775,DE
Al Hufuf,Saudi Arabia,Al Hufūf,25.3608,49.5997,SA
Xinshi,China,Xinshi,31.0236,113.1079,CN
Cochabamba,Bolivia,Cochabamba,-17.3935,-66.157,BO
Barnaul,Russia,Barnaul,53.3567,83.7872,RU
Tripoli,Lebanon,Tripoli,34.4333,35.8333,LB
Jin'e,China,Jin’e,29.3395,105.2868,CN
Rotterdam,Netherlands,Rotterdam,51.9225,4.4792,NL
Benghazi,Libya,Benghazi,32.1167,20.0667,LY
Kryvyi Rih,Ukraine,Kryvyi Rih,47.9086,33.3433,UA
Yanggok,South Korea,Yanggok,37.6367,127.2142,KR
Changping,China,Changping,40.2248,116.1944,CN
Raurkela,India,Raurkela,22.2492,84.8828,IN
Halwan,Egypt,Ḩalwān,29.8419,31.3342,EG
Charleston,United States,Charleston,32.8153,-79.9628,US
Chimalhuacan,Mexico,Chimalhuacán,19.4167,-98.9,MX
Xinxing,China,Xinxing,39.8734,124.1453,CN
Suohe,China,Suohe,34.7879,113.392,CN
Mangalore,India,Mangalore,12.8703,74.8806,IN
Zhuangyuan,China,Zhuangyuan,37.3,120.8333,CN
Ulyanovsk,Russia,Ulyanovsk,54.3167,48.3667,RU
Irkutsk,Russia,Irkutsk,52.2833,104.3,RU
Nanded,India,Nānded,19.15,77.3333,IN
Bacoor,Philippines,Bacoor,14.4624,120.9645,PH
Pontianak,Indonesia,Pontianak,-0.0206,109.3414,ID
Villa Nueva,Guatemala,Villa Nueva,14.5314,-90.5964,GT
Bazhou,China,Bazhou,39.1235,116.386,CN
Springfield,United States,Springfield,42.1155,-72.5395,US
Turpan,China,Turpan,42.95,89.1822,CN
Xingtai,China,Xingtai,37.0659,114.4753,CN
Meihekou,China,Meihekou,42.5279,125.678,CN
Cuiaba,Brazil,Cuiabá,-15.5958,-56.0969,BR
Jurong,China,Jurong,31.9579,119.1595,CN
Feira de Santana,Brazil,Feira de Santana,-12.2669,-38.9669,BR
Khabarovsk,Russia,Khabarovsk,48.4833,135.0667,RU
Zhugang,China,Zhugang,28.1277,121.2288,CN
Xinji,China,Xinji,37.9423,115.2118,CN
Hamhung,North Korea,Hamhŭng,39.9656,127.4886,KP
Serang,Indonesia,Serang,-6.12,106.1503,ID
Sanya,China,Sanya,18.2536,109.5019,CN
Buraydah,Saudi Arabia,Buraydah,26.3333,43.9667,SA
Ta`izz,Yemen,Ta‘izz,13.5789,44.0219,YE
Montpellier,France,Montpellier,43.6119,3.8772,FR
San Miguel de Tucuman,Argentina,San Miguel de Tucumán,-26.8167,-65.2167,AR
Yaroslavl,Russia,Yaroslavl,57.6167,39.85,RU
Zhangshu,China,Zhangshu,28.0667,115.5375,CN
Grand Rapids,United States,Grand Rapids,42.962,-85.6562,US
Vladivostok,Russia,Vladivostok,43.1167,131.9,RU
Kuantan,Malaysia,Kuantan,3.8167,103.3333,MY
Gothenburg,Sweden,Gothenburg,57.6717,11.981,SE
Cuttack,India,Cuttack,20.45,85.8667,IN
Jambi,Indonesia,Jambi,-1.59,103.61,ID
Zhuozhou,China,Zhuozhou,39.4887,115.9918,CN
Tianchang,China,Tianchang,32.6853,119.0041,CN
Las Pinas City,Philippines,Las Piñas City,14.45,120.9833,PH
Cimahi,Indonesia,Cimahi,-6.8833,107.5333,ID
Tuxtla,Mexico,Tuxtla,16.7528,-93.1167,MX
Balikpapan,Indonesia,Balikpapan,-1.1489,116.9031,ID
Qamdo,China,Qamdo,31.1375,97.1777,CN
Joinvile,Brazil,Joinvile,-26.3039,-48.8458,BR
Durban,South Africa,Durban,-29.8583,31.025,ZA
General Santos,Philippines,General Santos,6.1167,125.1667,PH
Chanda,India,Chānda,19.95,79.3,IN
Kagoshima,Japan,Kagoshima,31.58,130.5281,JP
Leipzig,Germany,Leipzig,51.3333,12.3833,DE
Al Hillah,Saudi Arabia,Al Ḩillah,23.4895,46.7564,SA
Makhachkala,Russia,Makhachkala,42.9833,47.4833,RU
Sihui,China,Sihui,23.3448,112.6956,CN
Mar del Plata,Argentina,Mar del Plata,-38,-57.55,AR
Brampton,Canada,Brampton,43.6833,-79.7667,CA
Luocheng,China,Luocheng,30.9793,104.28,CN
Pereira,Colombia,Pereira,4.8143,-75.6946,CO
Mission Viejo,United States,Mission Viejo,33.6095,-117.655,US
Dortmund,Germany,Dortmund,51.5139,7.4653,DE
Chuxiong,China,Chuxiong,25.0461,101.5436,CN
Makati City,Philippines,Makati City,14.55,121.0333,PH
Albany,United States,Albany,42.6664,-73.7987,US
Shah Alam,Malaysia,Shah Alam,3.0833,101.5333,MY
Knoxville,United States,Knoxville,35.9692,-83.9496,US
Essen,Germany,Essen,51.4508,7.0131,DE
Shangzhi,China,Shangzhi,45.2116,127.962,CN
Botou,China,Botou,38.074,116.57,CN
Bucaramanga,Colombia,Bucaramanga,7.1186,-73.1161,CO
Anyang,South Korea,Anyang,37.3925,126.9269,KR
Genoa,Italy,Genoa,44.4072,8.934,IT
Kuiju,China,Kuiju,36.8528,119.3904,CN
Tlaquepaque,Mexico,Tlaquepaque,20.6167,-103.3167,MX
Puente Alto,Chile,Puente Alto,-33.6167,-70.5833,CL
Dehra Dun,India,Dehra Dūn,30.318,78.029,IN
At Ta'if,Saudi Arabia,Aţ Ţā’if,21.2667,40.4167,SA
San Jose del Monte,Philippines,San Jose del Monte,14.8139,121.0453,PH
Bakersfield,United States,Bakersfield,35.3529,-119.0359,US
Wancheng,China,Wancheng,18.8,110.4,CN
Hachioji,Japan,Hachiōji,35.6667,139.3167,JP
Ogden,United States,Ogden,41.2278,-111.9682,US
Xiulin,China,Xiulin,29.7211,112.4037,CN
Fu'an,China,Fu’an,27.1,119.6333,CN
Tomsk,Russia,Tomsk,56.4886,84.9522,RU
Kerman,Iran,Kermān,30.2833,57.0667,IR
Kingston upon Hull,United Kingdom,Kingston upon Hull,53.7444,-0.3325,GB
Al Mahallah al Kubra,Egypt,Al Maḩallah al Kubrá,30.9667,31.1667,EG
Kumul,China,Kumul,42.8322,93.5155,CN
Luofeng,China,Luofeng,37.359,120.396,CN
Lingyuan,China,Lingyuan,41.2407,119.3957,CN
Baton Rouge,United States,Baton Rouge,30.4418,-91.131,US
Wencheng,China,Wencheng,19.6167,110.75,CN
Ciudad Bolivar,Venezuela,Ciudad Bolívar,8.1167,-63.55,VE
Durgapur,India,Durgāpur,23.55,87.32,IN
Orenburg,Russia,Orenburg,51.7667,55.1,RU
Shenzhou,China,Shenzhou,38.0005,115.5541,CN
Asansol,India,Āsansol,23.6833,86.9667,IN
Bacolod,Philippines,Bacolod,10.6765,122.9509,PH
Akron,United States,Akron,41.0798,-81.5219,US
New Haven,United States,New Haven,41.3112,-72.9246,US
Zhenzhou,China,Zhenzhou,32.2739,119.1619,CN
Surakarta,Indonesia,Surakarta,-7.5667,110.8167,ID
Jieshou,China,Jieshou,33.2605,115.3618,CN
Lanxi,China,Lanxi,29.2167,119.4722,CN
Zahedan,Iran,Zāhedān,29.4833,60.8667,IR
Dangyang,China,Dangyang,30.8258,111.791,CN
Columbia,United States,Columbia,34.0376,-80.9037,US
Kemerovo,Russia,Kemerovo,55.3333,86.0667,RU
Dresden,Germany,Dresden,51.05,13.74,DE
Veracruz,Mexico,Veracruz,19.1903,-96.1533,MX
Bhavnagar,India,Bhāvnagar,21.765,72.1369,IN
Luanzhou,China,Luanzhou,39.7396,118.6978,CN
Novokuznetsk,Russia,Novokuznetsk,53.75,87.1167,RU
Nellore,India,Nellore,14.4333,79.9667,IN
Chiclayo,Peru,Chiclayo,-6.763,-79.8366,PE
Palma,Spain,Palma,39.5667,2.65,ES
Al Hudaydah,Yemen,Al Ḩudaydah,14.8022,42.9511,YE
Eslamshahr,Iran,Eslāmshahr,35.5333,51.2,IR
Cabinda,Angola,Cabinda,-5.5667,12.2,AO
Amravati,India,Amrāvati,20.9333,77.75,IN
Korla,China,Korla,41.7646,86.1527,CN
Huanghua,China,Huanghua,38.371,117.3329,CN
Londrina,Brazil,Londrina,-23.31,-51.1628,BR
Tabuk,Saudi Arabia,Tabūk,28.3838,36.555,SA
Xingcheng,China,Xingcheng,40.6189,120.7205,CN
Kaiyuan,China,Kaiyuan,42.538,124.0371,CN
Valledupar,Colombia,Valledupar,10.4603,-73.2597,CO
Fengcheng,China,Fengcheng,40.4543,124.0646,CN
Ajmer,India,Ajmer,26.468,74.639,IN
Tinnevelly,India,Tinnevelly,8.7289,77.7081,IN
Fuding,China,Fuding,27.2,120.2,CN
Maturin,Venezuela,Maturín,9.7457,-63.1832,VE
An Nasiriyah,Iraq,An Nāşirīyah,31.0439,46.2575,IQ
Al Hillah,Iraq,Al Ḩillah,32.4833,44.4333,IQ
Ibague,Colombia,Ibagué,4.4378,-75.2006,CO
Hannover,Germany,Hannover,52.3744,9.7386,DE
Ryazan,Russia,Ryazan,54.6167,39.7167,RU
Panshi,China,Panshi,42.9392,126.0561,CN
Kassala,Sudan,Kassala,15.45,36.4,SD
Ananindeua,Brazil,Ananindeua,-1.3658,-48.3719,BR
Chang'an,China,Chang’an,29.4761,113.448,CN
Shashi,China,Shashi,30.32,112.23,CN
Poznan,Poland,Poznań,52.4,16.9167,PL
Aksu,China,Aksu,41.1664,80.25,CN
Salta,Argentina,Salta,-24.7883,-65.4106,AR
Astrakhan,Russia,Astrakhan,46.3333,48.0167,RU
Mingguang,China,Mingguang,32.7816,117.9899,CN
Naberezhnyye Chelny,Russia,Naberezhnyye Chelny,55.7,52.3333,RU
Bikaner,India,Bīkaner,28.0181,73.3169,IN
Agartala,India,Agartala,23.8333,91.2667,IN
Xalapa,Mexico,Xalapa,19.54,-96.9275,MX
Ndola,Zambia,Ndola,-12.9683,28.6337,ZM
Hamadan,Iran,Hamadān,34.8065,48.5162,IR
Villavicencio,Colombia,Villavicencio,4.1425,-73.6294,CO
Ailan Mubage,China,Ailan Mubage,43.9167,81.3167,CN
Ensenada,Mexico,Ensenada,31.8578,-116.6058,MX
Lyon,France,Lyon,45.76,4.84,FR
Bac Ninh,Vietnam,Bắc Ninh,21.1861,106.0763,VN
Ciudad Apodaca,Mexico,Ciudad Apodaca,25.7833,-100.1833,MX
Santa Teresa del Tuy,Venezuela,Santa Teresa del Tuy,10.2333,-66.65,VE
Maipu,Chile,Maipú,-33.5167,-70.7667,CL
Penza,Russia,Penza,53.2,45,RU
Heroica Matamoros,Mexico,Heroica Matamoros,25.8797,-97.5042,MX
Port Said,Egypt,Port Said,31.25,32.2833,EG
Yucheng,China,Yucheng,36.9329,116.6403,CN
Meknes,Morocco,Meknès,33.8833,-5.55,MA
Nuremberg,Germany,Nuremberg,49.4539,11.0775,DE
Pohang,South Korea,Pohang,36.0322,129.365,KR
Anda,China,Anda,46.4078,125.3252,CN
Jinghong,China,Jinghong,22.0057,100.7948,CN
Utsunomiya,Japan,Utsunomiya,36.55,139.8833,JP
Liaoyuan,China,Liaoyuan,42.8976,125.1381,CN
Mesa,United States,Mesa,33.4017,-111.718,US
Surrey,Canada,Surrey,49.19,-122.8489,CA
Caxias do Sul,Brazil,Caxias do Sul,-29.1678,-51.1789,BR
Heshan,China,Heshan,22.7697,112.9578,CN
Cuautitlan Izcalli,Mexico,Cuautitlán Izcalli,19.65,-99.25,MX
Ujjain,India,Ujjain,23.1828,75.7772,IN
Jiaji,China,Jiaji,19.2431,110.4642,CN
Santa Marta,Colombia,Santa Marta,11.2361,-74.2017,CO
Beining,China,Beining,41.5933,121.7932,CN
Hai Duong,Vietnam,Hải Dương,20.9399,106.3309,VN
Carrefour,Haiti,Carrefour,18.5333,-72.4,HT
Homyel',Belarus,Homyel’,52.4417,30.9833,BY
Leicester,United Kingdom,Leicester,52.6333,-1.1333,GB
Yanji,China,Yanji,42.9044,129.5067,CN
Yicheng,China,Yicheng,31.7117,112.2551,CN
Lipetsk,Russia,Lipetsk,52.6167,39.6,RU
Choloma,Honduras,Choloma,15.6333,-88,HN
Ulhasnagar,India,Ulhāsnagar,19.2167,73.15,IN
Encheng,China,Encheng,22.1879,112.3131,CN
Muntinlupa City,Philippines,Muntinlupa City,14.3833,121.05,PH
Linghai,China,Linghai,41.1676,121.3558,CN
Aden,Yemen,Aden,12.8,45.0333,YE
Matsuyama,Japan,Matsuyama,33.8333,132.7667,JP
Jhansi,India,Jhānsi,25.4486,78.5696,IN
Kitwe,Zambia,Kitwe,-12.8208,28.2119,ZM
Kashgar,China,Kashgar,39.45,75.9833,CN
Aba,Nigeria,Aba,5.1167,7.3667,NG
Palm Bay,United States,Palm Bay,27.955,-80.6627,US
Pingtung,Taiwan,Pingtung,22.6761,120.4942,TW
Monteria,Colombia,Montería,8.76,-75.8856,CO
Samarkand,Uzbekistan,Samarkand,39.6542,66.9597,UZ
Davangere,India,Davangere,14.4667,75.9167,IN
Jammu,India,Jammu,32.7333,74.85,IN
Mazatlan,Mexico,Mazatlán,23.22,-106.42,MX
Murcia,Spain,Murcia,37.9861,-1.1303,ES
Ile-Ife,Nigeria,Ile-Ife,7.4667,4.5667,NG
Kirov,Russia,Kirov,58.6,49.65,RU
Qaraghandy,Kazakhstan,Qaraghandy,49.8,73.1167,KZ
Belas,Angola,Belas,-8.9983,13.265,AO
Mazatan,Mexico,Mazatán,29.0167,-110.1333,MX
Duisburg,Germany,Duisburg,51.4322,6.7611,DE
Mykolaiv,Ukraine,Mykolaiv,46.9667,32,UA
Provo,United States,Provo,40.2457,-111.6457,US
Meicheng,China,Meicheng,30.6412,116.5689,CN
Niteroi,Brazil,Niterói,-22.8833,-43.1036,BR
Matsudo,Japan,Matsudo,35.7878,139.9031,JP
Sukkur,Pakistan,Sukkur,27.6995,68.8673,PK
Rouen,France,Rouen,49.4428,1.0886,FR
Higashi-osaka,Japan,Higashi-ōsaka,34.6794,135.6008,JP
Worcester,United States,Worcester,42.2705,-71.8079,US
Hongjiang,China,Hongjiang,27.1167,109.95,CN
Chimbote,Peru,Chimbote,-9.0745,-78.5936,PE
Ixtapaluca,Mexico,Ixtapaluca,19.3186,-98.8822,MX
Dengtacun,China,Dengtacun,41.42,123.33,CN
Zhijiang,China,Zhijiang,30.4271,111.7506,CN
Chengjiao,China,Chengjiao,35.4043,114.0593,CN
Beipiao,China,Beipiao,41.802,120.7621,CN
Murrieta,United States,Murrieta,33.572,-117.1909,US
Kota Bharu,Malaysia,Kota Bharu,6.1333,102.25,MY
Ciudad Lopez Mateos,Mexico,Ciudad López Mateos,19.55,-99.2833,MX
Vinh,Vietnam,Vinh,18.6733,105.6922,VN
Tultitlan de Mariano Escobedo,Mexico,Tultitlán de Mariano Escobedo,19.645,-99.1694,MX
Duyun,China,Duyun,26.2672,107.5143,CN
Kandahar,Afghanistan,Kandahār,31.6078,65.7053,AF
Nishinomiya-hama,Japan,Nishinomiya-hama,34.7333,135.3333,JP
Larkana,Pakistan,Larkana,27.56,68.2264,PK
Cheboksary,Russia,Cheboksary,56.1333,47.25,RU
Yuanping,China,Yuanping,38.7299,112.7134,CN
Port Sudan,Sudan,Port Sudan,19.6158,37.2164,SD
Edinburgh,United Kingdom,Edinburgh,55.953,-3.189,GB
Belgaum,India,Belgaum,15.8667,74.5,IN
Tula,Russia,Tula,54.2,37.6167,RU
Suez,Egypt,Suez,29.9667,32.5333,EG
Shahe,China,Shahe,36.8622,114.502,CN
Yazd,Iran,Yazd,31.8972,54.3678,IR
Serra,Brazil,Serra,-20.1289,-40.3078,BR
Nazret,Ethiopia,Nazrēt,8.55,39.27,ET
Gaoping,China,Gaoping,35.7911,112.9259,CN
Greenville,United States,Greenville,34.8353,-82.3647,US
Arak,Iran,Arāk,34.08,49.7,IR
San Nicolas de los Garza,Mexico,San Nicolás de los Garza,25.75,-100.2833,MX
Gulbarga,India,Gulbarga,17.3333,76.8333,IN
Juiz de Fora,Brazil,Juiz de Fora,-21.7642,-43.3503,BR
Dunhua,China,Dunhua,43.3667,128.2333,CN
Brookhaven,United States,Brookhaven,40.8321,-72.9518,US
Az Zarqa',Jordan,Az Zarqā’,32.0833,36.1,JO
Americana,Brazil,Americana,-22.7392,-47.3314,BR
Ardabil,Iran,Ardabīl,38.25,48.3,IR
Sylhet,Bangladesh,Sylhet,24.9,91.8667,BD
Wichita,United States,Wichita,37.6896,-97.3442,US
Toledo,United States,Toledo,41.6639,-83.5822,US
Kaihua,China,Kaihua,23.3715,104.2437,CN
Caerdydd,United Kingdom,Caerdydd,51.4833,-3.1833,GB
Jamnagar,India,Jāmnagar,22.47,70.07,IN
Dhulia,India,Dhūlia,20.9,74.7833,IN
Nampula,Mozambique,Nampula,-15.1167,39.2667,MZ
Gaya,India,Gaya,24.75,85.0167,IN
Florianopolis,Brazil,Florianópolis,-27.5933,-48.553,BR
Chiniot,Pakistan,Chiniot,31.7167,72.9833,PK
Jiannan,China,Jiannan,31.3446,104.1994,CN
Oita,Japan,Ōita,33.2333,131.6067,JP
Wuhai,China,Wuhai,39.6708,106.8114,CN
Kaliningrad,Russia,Kaliningrad,54.7167,20.5,RU
Nangong,China,Nangong,37.3606,115.3803,CN
Staten Island,United States,Staten Island,40.5834,-74.1496,US
San Juan,Argentina,San Juan,-31.5375,-68.5364,AR
Vila Velha,Brazil,Vila Velha,-20.3364,-40.2936,BR
Macapa,Brazil,Macapá,0.033,-51.0653,BR
Shekhupura,Pakistan,Shekhupura,31.7083,74,PK
Des Moines,United States,Des Moines,41.5725,-93.6105,US
Piura,Peru,Piura,-5.2008,-80.6253,PE
Jiaojiangcun,China,Jiaojiangcun,28.6804,121.45,CN
Laohekou,China,Laohekou,32.3849,111.6695,CN
Beian,China,Beian,48.2395,126.5037,CN
Fujin,China,Fujin,47.2489,132.0341,CN
Celaya,Mexico,Celaya,20.5222,-100.8122,MX
Xiaoyi,China,Xiaoyi,37.1449,111.7718,CN
Strasbourg,France,Strasbourg,48.5833,7.7458,FR
Lanus,Argentina,Lanús,-34.7,-58.4,AR
Qingzhen,China,Qingzhen,26.5555,106.4646,CN
Jiangshan,China,Jiangshan,28.7412,118.6225,CN
Ba`qubah,Iraq,Ba‘qūbah,33.7447,44.6436,IQ
Tamale,Ghana,Tamale,9.4075,-0.8533,GH
Gdansk,Poland,Gdańsk,54.3667,18.6333,PL
Manado,Indonesia,Manado,1.4931,124.8413,ID
Jinchang,China,Jinchang,38.5168,102.1866,CN
Kanazawa,Japan,Kanazawa,36.6,136.6167,JP
Calabar,Nigeria,Calabar,4.95,8.325,NG
Long Beach,United States,Long Beach,33.7981,-118.1675,US
Malatya,Turkey,Malatya,38.3554,38.3337,TR
Hue,Vietnam,Huế,16.4637,107.5908,VN
Cranbourne,Australia,Cranbourne,-38.0996,145.2834,AU
Jalgaon,India,Jalgaon,21.0167,75.5667,IN
Port St. Lucie,United States,Port St. Lucie,27.2796,-80.3883,US
Maua,Brazil,Mauá,-23.6678,-46.4608,BR
Fukuyama,Japan,Fukuyama,34.4858,133.3625,JP
Tel Aviv-Yafo,Israel,Tel Aviv-Yafo,32.08,34.78,IL
Xicheng,China,Xicheng,23.3629,103.1545,CN
Marikina City,Philippines,Marikina City,14.65,121.1,PH
Pyeongtaek,South Korea,Pyeongtaek,36.9947,127.0889,KR
Kurnool,India,Kurnool,15.8222,78.035,IN
City of Calamba,Philippines,City of Calamba,14.2167,121.1667,PH
Denton,United States,Denton,33.2176,-97.1419,US
Ar Ramadi,Iraq,Ar Ramādī,33.4258,43.2992,IQ
Melaka,Malaysia,Melaka,2.1889,102.2511,MY
Jian'ou,China,Jian’ou,27.0387,118.3215,CN
Huadian,China,Huadian,42.9688,126.7388,CN
Taoyuan District,Taiwan,Taoyuan District,24.9889,121.3111,TW
Iloilo,Philippines,Iloilo,10.7167,122.5667,PH
Kota Kinabalu,Malaysia,Kota Kinabalu,5.975,116.0725,MY
Minzhu,China,Minzhu,43.7192,127.337,CN
Rajshahi,Bangladesh,Rājshāhi,24.3667,88.6,BD
Tanta,Egypt,Ţanţā,30.7833,31,EG
Balashikha,Russia,Balashikha,55.8,37.95,RU
Udaipur,India,Udaipur,24.5833,73.6833,IN
Kursk,Russia,Kursk,51.7372,36.1872,RU
Mariupol,Ukraine,Mariupol,47.1306,37.5639,UA
Bukavu,Congo (Kinshasa),Bukavu,-2.5,28.8667,CD
Hsinchu,Taiwan,Hsinchu,24.8047,120.9714,TW
Barcelona,Venezuela,Barcelona,10.1333,-64.6833,VE
Constantine,Algeria,Constantine,36.365,6.6147,DZ
Tanbei,China,Tanbei,35.0907,112.9317,CN
Ado-Ekiti,Nigeria,Ado-Ekiti,7.6167,5.2167,NG
Batman,Turkey,Batman,37.8833,41.1333,TR
Pasay City,Philippines,Pasay City,14.55,121,PH
Madison,United States,Madison,43.0826,-89.3931,US
Baisha,China,Baisha,29.4774,119.2853,CN
Betim,Brazil,Betim,-19.9678,-44.1978,BR
Bellary,India,Bellary,15.15,76.915,IN
Santiago de Cuba,Cuba,Santiago de Cuba,20.0283,-75.8206,CU
Yongji,China,Yongji,34.867,110.4417,CN
Reno,United States,Reno,39.5497,-119.8483,US
Danjiangkou,China,Danjiangkou,32.5408,111.5098,CN
Kahramanmaras,Turkey,Kahramanmaraş,37.5875,36.9453,TR
Sao Jose do Rio Preto,Brazil,São José do Rio Prêto,-20.82,-49.3789,BR
Andijon,Uzbekistan,Andijon,40.7,72.35,UZ
Harrisburg,United States,Harrisburg,40.2752,-76.8843,US
Nancy,France,Nancy,48.6936,6.1846,FR
Puerto Plata,Dominican Republic,Puerto Plata,19.7958,-70.6944,DO
Machida,Japan,Machida,35.5486,139.4467,JP
Ning'an,China,Ning’an,44.3429,129.4621,CN
Beira,Mozambique,Beira,-19.8333,34.85,MZ
Little Rock,United States,Little Rock,34.7256,-92.3576,US
San Cristobal,Venezuela,San Cristóbal,7.7714,-72.2261,VE
Zurich,Switzerland,Zürich,47.3786,8.54,CH
Zhangjiakou Shi Xuanhua Qu,China,Zhangjiakou Shi Xuanhua Qu,40.5944,115.0243,CN
Sunch'on,North Korea,Sunch’ŏn,39.4167,125.9333,KP
Diadema,Brazil,Diadema,-23.6858,-46.6228,BR
Guangming,China,Guangming,45.3357,122.7765,CN
Sangli,India,Sāngli,16.8667,74.5667,IN
Tuticorin,India,Tuticorin,8.7833,78.1333,IN
Herat,Afghanistan,Herāt,34.3738,62.1792,AF
Kupang,Indonesia,Kupang,-10.1633,123.5778,ID
Jeju,South Korea,Jeju,33.5097,126.5219,KR
Bandar `Abbas,Iran,Bandar ‘Abbās,27.2,56.25,IR
Santos,Brazil,Santos,-23.9608,-46.3339,BR
Manizales,Colombia,Manizales,5.0661,-75.4847,CO
Stavropol,Russia,Stavropol,45.05,41.9833,RU
Katsina,Nigeria,Katsina,12.9889,7.6008,NG
Yogyakarta,Indonesia,Yogyakarta,-7.8014,110.3644,ID
Calicut,India,Calicut,11.25,75.7667,IN
Zanjan,Iran,Zanjān,36.6667,48.4833,IR
Welkom,South Africa,Welkom,-27.9831,26.7208,ZA
Ulan-Ude,Russia,Ulan-Ude,51.8272,107.6064,RU
Oakland,United States,Oakland,37.7903,-122.2165,US
Mazar-e Sharif,Afghanistan,Mazār-e Sharīf,36.7,67.1167,AF
Kashan,Iran,Kāshān,33.9833,51.4333,IR
Kenitra,Morocco,Kenitra,34.25,-6.5833,MA
Uyo,Nigeria,Uyo,5.05,7.9333,NG
Maringa,Brazil,Maringá,-23.425,-51.9389,BR
Khamis Mushayt,Saudi Arabia,Khamīs Mushayţ,18.3,42.7333,SA
Masan,South Korea,Masan,35.1833,128.55,KR
Cusco,Peru,Cusco,-13.5183,-71.9781,PE
Sevastopol,Ukraine,Sevastopol,44.6,33.5333,UA
Mandaluyong City,Philippines,Mandaluyong City,14.5833,121.0333,PH
Porto Velho,Brazil,Porto Velho,-8.7619,-63.9039,BR
Florencio Varela,Argentina,Florencio Varela,-34.8167,-58.2833,AR
Akola,India,Akola,20.7333,77,IN
Yan'an Beilu,China,Yan’an Beilu,44.0222,87.2961,CN
Agadir,Morocco,Agadir,30.4167,-9.5833,MA
Mogi das Cruzes,Brazil,Mogi das Cruzes,-23.5228,-46.1931,BR
Durham,United States,Durham,35.9794,-78.9031,US
Likasi,Congo (Kinshasa),Likasi,-10.9833,26.7333,CD
Buenaventura,Colombia,Buenaventura,3.8772,-77.0267,CO
Laval,Canada,Laval,45.5833,-73.75,CA
Toyota,Japan,Toyota,35.0833,137.1567,JP
Winston-Salem,United States,Winston-Salem,36.1029,-80.2611,US
Uijeongbu,South Korea,Uijeongbu,37.7486,127.0389,KR
Tver,Russia,Tver,56.8578,35.9219,RU
Elazig,Turkey,Elazığ,38.6667,39.2167,TR
Akure,Nigeria,Akure,7.25,5.195,NG
Hpa-An,Myanmar,Hpa-An,16.8906,97.6333,MM
Bonita Springs,United States,Bonita Springs,26.3559,-81.7861,US
Mishan,China,Mishan,45.542,131.8666,CN
Hailin,China,Hailin,44.5735,129.3825,CN
Seremban,Malaysia,Seremban,2.7297,101.9381,MY
Lecheng,China,Lecheng,25.1307,113.3472,CN
Zhengjiatun,China,Zhengjiatun,43.513,123.5003,CN
Luhansk,Ukraine,Luhansk,48.5833,39.3333,UA
Pencheng,China,Pencheng,29.6792,115.6611,CN
Magnitogorsk,Russia,Magnitogorsk,53.3833,59.0333,RU
Takamatsu,Japan,Takamatsu,34.35,134.05,JP
Angeles City,Philippines,Angeles City,15.1472,120.5847,PH
El Obeid,Sudan,El Obeid,13.1833,30.2167,SD
Dalai,China,Dalai,45.505,124.2863,CN
Xingren,China,Xingren,25.4352,105.1907,CN
Kolwezi,Congo (Kinshasa),Kolwezi,-10.7167,25.4667,CD
Wenlan,China,Wenlan,23.3689,103.3881,CN
Indio,United States,Indio,33.7346,-116.2346,US
Palm Coast,United States,Palm Coast,29.5392,-81.246,US
Arusha,Tanzania,Arusha,-3.3667,36.6833,TZ
Fenyang,China,Fenyang,37.2652,111.7793,CN
Paju,South Korea,Paju,37.8328,126.8169,KR
Oujda-Angad,Morocco,Oujda-Angad,34.69,-1.91,MA
Mataram,Indonesia,Mataram,-8.5833,116.1167,ID
Chattanooga,United States,Chattanooga,35.0657,-85.2488,US
Lapu-Lapu City,Philippines,Lapu-Lapu City,10.3127,123.9488,PH
Jhang City,Pakistan,Jhang City,31.2681,72.3181,PK
Nagqu,China,Nagqu,31.4766,92.0569,CN
Kisumu,Kenya,Kisumu,-0.1,34.75,KE
Jayapura,Indonesia,Jayapura,-2.5333,140.7167,ID
Montes Claros,Brazil,Montes Claros,-16.7322,-43.8636,BR
Rio Branco,Brazil,Rio Branco,-9.9781,-67.8117,BR
Toyama,Japan,Toyama,36.7,137.22,JP
Fangting,China,Fangting,31.1282,104.1695,CN
Spokane,United States,Spokane,47.6671,-117.433,US
Sochi,Russia,Sochi,43.5853,39.7203,RU
Bhagalpur,India,Bhāgalpur,25.25,87.0167,IN
Ivanovo,Russia,Ivanovo,57,41,RU
Osogbo,Nigeria,Osogbo,7.7667,4.5667,NG
Imus,Philippines,Imus,14.4297,120.9367,PH
Ciudad Obregon,Mexico,Ciudad Obregón,27.4939,-109.9389,MX
Turkmenabat,Turkmenistan,Türkmenabat,39.1,63.5667,TM
Zaria,Nigeria,Zaria,11.0667,7.7,NG
Namangan,Uzbekistan,Namangan,40.9953,71.6725,UZ
Bryansk,Russia,Bryansk,53.25,34.3667,RU
Taiping,China,Taiping,32.0691,108.0351,CN
Maracay,Venezuela,Maracay,10.2469,-67.5958,VE
Jiexiu,China,Jiexiu,37.0282,111.9103,CN
Mbale,Uganda,Mbale,1.0806,34.175,UG
Taraz,Kazakhstan,Taraz,42.8833,71.3667,KZ
Asyut,Egypt,Asyūţ,27.1869,31.1714,EG
Santa Fe,Argentina,Santa Fe,-31.6333,-60.7,AR
Campina Grande,Brazil,Campina Grande,-7.2306,-35.8811,BR
Nagasaki,Japan,Nagasaki,32.7833,129.8667,JP
Szczecin,Poland,Szczecin,53.4247,14.5553,PL
Ghulja,China,Ghulja,43.9,81.35,CN
Syracuse,United States,Syracuse,43.0409,-76.1438,US
Carapicuiba,Brazil,Carapicuíba,-23.5228,-46.8358,BR
Quilon,India,Quilon,8.8853,76.5864,IN
Jundiai,Brazil,Jundiaí,-23.1864,-46.8842,BR
Gifu,Japan,Gifu,35.4167,136.7667,JP
Lancaster,United States,Lancaster,40.0421,-76.3012,US
Eindhoven,Netherlands,Eindhoven,51.4408,5.4778,NL
Sikar,India,Sīkar,27.6119,75.1397,IN
Tumkur,India,Tumkūr,13.33,77.1,IN
Jiangjiafan,China,Jiangjiafan,31.0304,112.1,CN
Dera Ghazi Khan,Pakistan,Dera Ghazi Khan,30.05,70.6333,PK
Arlington,United States,Arlington,32.6998,-97.125,US
Miyazaki,Japan,Miyazaki,31.9167,131.4167,JP
Stockton,United States,Stockton,37.9765,-121.3109,US
Bhatpara,India,Bhātpāra,22.8667,88.4167,IN
Sandakan,Malaysia,Sandakan,5.8388,118.1173,MY
Hejin,China,Hejin,35.5914,110.706,CN
Thanh Hoa,Vietnam,Thanh Hóa,19.8075,105.7764,VN
Muzaffarnagar,India,Muzaffarnagar,29.4708,77.7033,IN
Poughkeepsie,United States,Poughkeepsie,41.6949,-73.921,US
Campos,Brazil,Campos,-21.7523,-41.3304,BR
Metz,France,Metz,49.1203,6.1778,FR
Nha Trang,Vietnam,Nha Trang,12.2495,109.1908,VN
Belgorod,Russia,Belgorod,50.6,36.6,RU
Yola,Nigeria,Yola,9.2,12.4833,NG
Lobito,Angola,Lobito,-12.3597,13.5308,AO
Saurimo,Angola,Saurimo,-9.6589,20.3934,AO
Olinda,Brazil,Olinda,-8.0089,-34.855,BR
Bologna,Italy,Bologna,44.4939,11.3428,IT
Ad Diwaniyah,Iraq,Ad Dīwānīyah,31.9892,44.9247,IQ
Gujrat,Pakistan,Gujrat,32.5736,74.0789,PK
Hancheng,China,Hancheng,35.4603,110.4292,CN
Fuyu,China,Fuyu,45.1804,124.82,CN
Karamay,China,Karamay,45.5928,84.8711,CN
Kakinada,India,Kākināda,16.9333,82.2167,IN
Augusta,United States,Augusta,33.3645,-82.0708,US
Bhilwara,India,Bhīlwāra,25.35,74.6333,IN
Tieli,China,Tieli,46.9804,128.045,CN
Cilegon,Indonesia,Cilegon,-6.0027,106.0112,ID
Baicheng,China,Baicheng,45.6148,122.832,CN
Nizamabad,India,Nizāmābād,18.6704,78.1,IN
Boise,United States,Boise,43.6007,-116.2312,US
Tonala,Mexico,Tonalá,20.6167,-103.2333,MX
Mwanza,Tanzania,Mwanza,-2.5167,32.9,TZ
Aqtobe,Kazakhstan,Aqtöbe,50.3,57.1667,KZ
Oxnard,United States,Oxnard,34.1963,-119.1815,US
Tetouan,Morocco,Tétouan,35.5667,-5.3667,MA
Okazaki,Japan,Okazaki,34.95,137.1667,JP
Cariacica,Brazil,Cariacica,-20.2639,-40.42,BR
Ha'il,Saudi Arabia,Ḩā’il,27.5236,41.7001,SA
Las Palmas,Spain,Las Palmas,28.1272,-15.4314,ES
Yidu,China,Yidu,30.388,111.4505,CN
Lianzhou,China,Lianzhou,24.7868,112.3735,CN
Florence,Italy,Florence,43.7714,11.2542,IT
Scranton,United States,Scranton,41.4044,-75.6649,US
Brno,Czechia,Brno,49.1953,16.6083,CZ
London,Canada,London,42.9836,-81.2497,CA
Modesto,United States,Modesto,37.6374,-121.0028,US
Kissimmee,United States,Kissimmee,28.3042,-81.4164,US
Pasto,Colombia,Pasto,1.2136,-77.2811,CO
Ichinomiya,Japan,Ichinomiya,35.3039,136.8031,JP
Qazvin,Iran,Qazvīn,36.2688,50.0041,IR
Irapuato,Mexico,Irapuato,20.6667,-101.35,MX
Novi Sad,Serbia,Novi Sad,45.2644,19.8317,RS
Shihezi,China,Shihezi,44.3,86.0333,CN
Shache,China,Shache,38.4261,77.25,CN
Panihati,India,Pānihāti,22.69,88.37,IN
Huancayo,Peru,Huancayo,-12.0667,-75.2167,PE
Aurora,United States,Aurora,39.7087,-104.7273,US
Malabon,Philippines,Malabon,14.6625,120.9567,PH
Petion-Ville,Haiti,Pétion-Ville,18.5098,-72.2856,HT
Sintra,Portugal,Sintra,38.7974,-9.3904,PT
Parbhani,India,Parbhani,19.2704,76.76,IN
Usulutan,El Salvador,Usulután,13.35,-88.45,SV
Youngstown,United States,Youngstown,41.0993,-80.6463,US
Christchurch,New Zealand,Christchurch,-43.5309,172.6365,NZ
Hatay,Turkey,Hatay,36.2,36.15,TR
Iquitos,Peru,Iquitos,-3.7333,-73.25,PE
Sivas,Turkey,Sivas,39.75,37.0167,TR
Helixi,China,Helixi,30.6267,118.9861,CN
A Coruna,Spain,A Coruña,43.3713,-8.4188,ES
Manukau City,New Zealand,Manukau City,-37,174.885,NZ
Stoke-on-Trent,United Kingdom,Stoke-on-Trent,53,-2.1833,GB
Cumana,Venezuela,Cumaná,10.45,-64.1667,VE
Vinnytsia,Ukraine,Vinnytsia,49.2372,28.4672,UA
Rohtak,India,Rohtak,28.9,76.5667,IN
Latur,India,Lātūr,18.4004,76.57,IN
Bello,Colombia,Bello,6.3319,-75.5581,CO
Sanandaj,Iran,Sanandaj,35.3097,46.9989,IR
Nuevo Laredo,Mexico,Nuevo Laredo,27.4861,-99.5069,MX
Ambon,Indonesia,Ambon,-3.705,128.17,ID
Mandaue City,Philippines,Mandaue City,10.3333,123.9333,PH
Keelung,Taiwan,Keelung,25.1283,121.7419,TW
Toyohashi,Japan,Toyohashi,34.7667,137.3833,JP
La Florida,Chile,La Florida,-33.55,-70.5667,CL
Varna,Bulgaria,Varna,43.2114,27.9111,BG
Lengshuijiang,China,Lengshuijiang,27.6858,111.4279,CN
Anguo,China,Anguo,38.4177,115.3204,CN
Rajapalaiyam,India,Rājapālaiyam,9.4204,77.58,IN
Rodriguez,Philippines,Rodriguez,14.7167,121.1167,PH
Madan,Iran,Madan,30.3307,48.2797,IR
Az Zubayr,Iraq,Az Zubayr,30.3892,47.7081,IQ
Al Qatif,Saudi Arabia,Al Qaţīf,26.5196,50.0115,SA
Cuernavaca,Mexico,Cuernavaca,18.9186,-99.2342,MX
Nicolas Romero,Mexico,Nicolás Romero,19.5833,-99.3667,MX
Huichang,China,Huichang,34.9136,112.7852,CN
Vitsyebsk,Belarus,Vitsyebsk,55.1833,30.1667,BY
Nagano,Japan,Nagano,36.6486,138.1928,JP
Bauru,Brazil,Bauru,-22.3147,-49.0606,BR
Yanjiao,China,Yanjiao,39.9432,116.8036,CN
Bochum,Germany,Bochum,51.4833,7.2167,DE
Anapolis,Brazil,Anápolis,-16.3269,-48.9528,BR
Coventry,United Kingdom,Coventry,52.4081,-1.5106,GB
Zalantun,China,Zalantun,48.0033,122.7365,CN
Tecamac,Mexico,Tecámac,19.7131,-98.9683,MX
Ciudad General Escobedo,Mexico,Ciudad General Escobedo,25.7933,-100.1583,MX
Wonsan,North Korea,Wŏnsan,39.1475,127.4461,KP
Kocaeli,Turkey,Kocaeli,40.7656,29.9406,TR
Bengkulu,Indonesia,Bengkulu,-3.7956,102.2592,ID
Shuanghejiedao,China,Shuanghejiedao,30.3866,106.7756,CN
Surgut,Russia,Surgut,61.25,73.4333,RU
Bobo-Dioulasso,Burkina Faso,Bobo-Dioulasso,11.1833,-4.2833,BF
Umuahia,Nigeria,Umuahia,5.5333,7.4833,NG
Gedaref,Sudan,Gedaref,14.0333,35.3833,SD
Palu,Indonesia,Palu,-0.895,119.8594,ID
Santa Rosa,Philippines,Santa Rosa,14.3167,121.1167,PH
Pokhara,Nepal,Pokhara,28.2097,83.9853,NP
Mahilyow,Belarus,Mahilyow,53.9089,30.343,BY
Wudalianchi,China,Wudalianchi,48.6433,126.1408,CN
Sungai Petani,Malaysia,Sungai Petani,5.65,100.48,MY
Nam Dinh,Vietnam,Nam Định,20.42,106.1683,VN
Sinuiju,North Korea,Sinŭiju,40.1,124.4,KP
Vitoria,Brazil,Vitória,-20.3189,-40.3378,BR
Hrodna,Belarus,Hrodna,53.6667,23.8167,BY
Vladimir,Russia,Vladimir,56.1286,40.4058,RU
Bilbao,Spain,Bilbao,43.2569,-2.9236,ES
Sao Vicente,Brazil,São Vicente,-23.9633,-46.3922,BR
Cubal,Angola,Cubal,-13.0333,14.2333,AO
Yong'an,China,Yong’an,25.9733,117.3593,CN
Itaquaquecetuba,Brazil,Itaquaquecetuba,-23.4864,-46.3486,BR
Wuppertal,Germany,Wuppertal,51.2667,7.1833,DE
Minatitlan,Mexico,Minatitlán,17.9833,-94.55,MX
Nizhniy Tagil,Russia,Nizhniy Tagil,57.9167,59.9667,RU
Ponta Grossa,Brazil,Ponta Grossa,-25.095,-50.1619,BR
Hongzhai,China,Hongzhai,35.0476,104.6394,CN
Wakayama,Japan,Wakayama,34.2333,135.1667,JP
Pavlodar,Kazakhstan,Pavlodar,52.3156,76.9564,KZ
Gimpo,South Korea,Gimpo,37.6236,126.7142,KR
Rahimyar Khan,Pakistan,Rahimyar Khan,28.4202,70.2952,PK
Nara,Japan,Nara,34.6833,135.7833,JP
Van,Turkey,Van,38.5019,43.4167,TR
Corrientes,Argentina,Corrientes,-27.4833,-58.8167,AR
San Pedro,Philippines,San Pedro,14.3583,121.0583,PH
Neiva,Colombia,Neiva,2.9275,-75.2875,CO
Arkhangelsk,Russia,Arkhangelsk,64.55,40.5333,RU
Licheng,China,Licheng,24.4935,110.3902,CN
Koshigaya,Japan,Koshigaya,35.8911,139.7908,JP
Cabimas,Venezuela,Cabimas,10.4,-71.4333,VE
Yakeshi,China,Yakeshi,49.2842,120.7283,CN
Baguio City,Philippines,Baguio City,16.4152,120.5956,PH
Ahmadnagar,India,Ahmadnagar,19.0833,74.7333,IN
Fayetteville,United States,Fayetteville,36.0713,-94.166,US
Canoas,Brazil,Canoas,-29.92,-51.18,BR
Holguin,Cuba,Holguín,20.8872,-76.2631,CU
Qoqon,Uzbekistan,Qoqon,40.5404,70.94,UZ
Anaheim,United States,Anaheim,33.839,-117.8572,US
Yingmen,China,Yingmen,39.83,97.73,CN
Piracicaba,Brazil,Piracicaba,-22.725,-47.6489,BR
Bydgoszcz,Poland,Bydgoszcz,53.1167,18,PL
Antofagasta,Chile,Antofagasta,-23.6464,-70.398,CL
Khorramabad,Iran,Khorramābād,33.4667,48.35,IR
Rajahmundry,India,Rājahmundry,16.9833,81.7833,IN
Chita,Russia,Chita,52.0333,113.5,RU
Caruaru,Brazil,Caruaru,-8.2828,-35.9758,BR
Makiivka,Ukraine,Makiivka,48.0556,37.9611,UA
Chitungwiza,Zimbabwe,Chitungwiza,-18,31.1,ZW
Pensacola,United States,Pensacola,30.4427,-87.1886,US
Victorville,United States,Victorville,34.5277,-117.3536,US
Tanch'on,North Korea,Tanch’ŏn,40.458,128.911,KP
Tokorozawa,Japan,Tokorozawa,35.7994,139.4689,JP
Sumqayit,Azerbaijan,Sumqayıt,40.5917,49.6397,AZ
Kusti,Sudan,Kūstī,13.17,32.66,SD
Al `Amarah,Iraq,Al ‘Amārah,31.8416,47.1512,IQ
Cuddapah,India,Cuddapah,14.4667,78.8167,IN
Simferopol,Ukraine,Simferopol,44.9484,34.1,UA
Plovdiv,Bulgaria,Plovdiv,42.1433,24.7489,BG
Tarlac City,Philippines,Tarlac City,15.4802,120.5979,PH
Otsu,Japan,Ōtsu,35.0167,135.85,JP
Pelotas,Brazil,Pelotas,-31.7719,-52.3428,BR
Lancaster,United States,Lancaster,34.6935,-118.1753,US
Greensboro,United States,Greensboro,36.0956,-79.8269,US
Iligan,Philippines,Iligan,8.2333,124.25,PH
East London,South Africa,East London,-33.0153,27.9116,ZA
Franca,Brazil,Franca,-20.5389,-47.4008,BR
Brest,Belarus,Brest,52.0847,23.6569,BY
Kaluga,Russia,Kaluga,54.5333,36.2667,RU
Yeosu,South Korea,Yeosu,34.7368,127.7458,KR
Corpus Christi,United States,Corpus Christi,27.726,-97.3755,US
Muzaffarpur,India,Muzaffarpur,26.12,85.3833,IN
Lublin,Poland,Lublin,51.2333,22.5667,PL
Lianran,China,Lianran,24.9211,102.4778,CN
Alwar,India,Alwar,27.5667,76.6167,IN
Baishan,China,Baishan,41.9377,126.4179,CN
Kawagoe,Japan,Kawagoe,35.9251,139.4858,JP
Farg`ona,Uzbekistan,Farg‘ona,40.3864,71.7864,UZ
Tamuramachi-moriyama,Japan,Tamuramachi-moriyama,37.3252,140.4134,JP
Brahmapur,India,Brahmapur,19.32,84.8,IN
Buon Ma Thuot,Vietnam,Buôn Ma Thuột,12.6667,108.05,VN
Binan,Philippines,Biñan,14.3333,121.0833,PH
Semey,Kazakhstan,Semey,50.4111,80.2275,KZ
Tarsus,Turkey,Tarsus,36.9167,34.9,TR
Alicante,Spain,Alicante,38.3453,-0.4831,ES
Randburg,South Africa,Randburg,-26.0936,28.0064,ZA
Tepic,Mexico,Tepic,21.5083,-104.8931,MX
Jitpur,Nepal,Jitpur,27.6666,85.3333,NP
Kaesong,North Korea,Kaesŏng,37.964,126.5644,KP
Beni,Congo (Kinshasa),Beni,0.5,29.4667,CD
Petrolina,Brazil,Petrolina,-9.3928,-40.5078,BR
Chinju,South Korea,Chinju,35.1928,128.0847,KR
Tangdong,China,Tangdong,25.9755,113.2302,CN
Butuan,Philippines,Butuan,8.9534,125.5288,PH
Reading,United Kingdom,Reading,51.4542,-0.9731,GB
Uberaba,Brazil,Uberaba,-19.7478,-47.9319,BR
Belfast,United Kingdom,Belfast,54.5964,-5.93,GB
Iwaki,Japan,Iwaki,37.0333,140.8833,JP
Blida,Algeria,Blida,36.4722,2.8333,DZ
Hangu,China,Hangu,39.232,117.777,CN
Yingzhong,China,Yingzhong,32.2381,119.8133,CN
Vina del Mar,Chile,Viña del Mar,-33.0245,-71.5518,CL
Bielefeld,Germany,Bielefeld,52.0167,8.5333,DE
Cuenca,Ecuador,Cuenca,-2.8974,-79.0045,EC
Fort Wayne,United States,Fort Wayne,41.0886,-85.1437,US
Lipa City,Philippines,Lipa City,13.9411,121.1622,PH
Wad Medani,Sudan,Wad Medani,14.4,33.51,SD
Ribeirao das Neves,Brazil,Ribeirão das Neves,-19.7669,-44.0869,BR
Kamarhati,India,Kāmārhāti,22.67,88.37,IN
Maebashi,Japan,Maebashi,36.3833,139.0667,JP
Thessaloniki,Greece,Thessaloníki,40.6403,22.9356,GR
Ganca,Azerbaijan,Gəncə,40.6828,46.3606,AZ
Bilaspur,India,Bilāspur,22.15,82.0167,IN
Santa Ana,United States,Santa Ana,33.7366,-117.8819,US
Mymensingh,Bangladesh,Mymensingh,24.7504,90.38,BD
Al Fayyum,Egypt,Al Fayyūm,29.3,30.8333,EG
Flint,United States,Flint,43.0235,-83.6922,US
Kendari,Indonesia,Kendari,-3.9675,122.5947,ID
Balikesir,Turkey,Balıkesir,39.6511,27.8842,TR
Az Zaqaziq,Egypt,Az Zaqāzīq,30.5667,31.5,EG
Thai Nguyen,Vietnam,Thái Nguyên,21.6,105.85,VN
Smolensk,Russia,Smolensk,54.7828,32.0453,RU
Asahikawa,Japan,Asahikawa,43.7706,142.365,JP
Islip,United States,Islip,40.7384,-73.1887,US
Wonju,South Korea,Wŏnju,37.3417,127.9208,KR
Dahuk,Iraq,Dahūk,36.85,42.9833,IQ
Batangas,Philippines,Batangas,13.75,121.05,PH
Mathura,India,Mathura,27.4833,77.6833,IN
Barishal,Bangladesh,Barishal,22.7,90.3667,BD
Bamiantong,China,Bamiantong,44.9164,130.5212,CN
Patiala,India,Patiāla,30.3204,76.385,IN
Cainta,Philippines,Cainta,14.5667,121.1167,PH
Bonn,Germany,Bonn,50.7339,7.0997,DE
Sao Jose dos Pinhais,Brazil,São José dos Pinhais,-25.535,-49.2058,BR
Vung Tau,Vietnam,Vũng Tàu,10.4042,107.1417,VN
Markham,Canada,Markham,43.8767,-79.2633,CA
Saugor,India,Saugor,23.8504,78.75,IN
Malmo,Sweden,Malmö,55.5932,13.0214,SE
Roodepoort,South Africa,Roodepoort,-26.1625,27.8725,ZA
Gomez Palacio,Mexico,Gómez Palacio,25.5611,-103.4983,MX
Volzhskiy,Russia,Volzhskiy,48.7833,44.7667,RU
Taourirt,Morocco,Taourirt,34.41,-2.89,MA
Bijapur,India,Bijāpur,16.8244,75.7154,IN
Sukabumi,Indonesia,Sukabumi,-6.9197,106.9272,ID
Fayetteville,United States,Fayetteville,35.0846,-78.9776,US
Taytay,Philippines,Taytay,14.5692,121.1325,PH
Ulanhot,China,Ulanhot,46.0726,122.0719,CN
Nakuru,Kenya,Nakuru,-0.2833,36.0667,KE
Yunzhong,China,Yunzhong,39.8143,113.0946,CN
Al Fallujah,Iraq,Al Fallūjah,33.35,43.7833,IQ
Kochi,Japan,Kōchi,33.5589,133.5314,JP
Boa Vista,Brazil,Boa Vista,2.82,-60.6719,BR
Gwangmyeongni,South Korea,Gwangmyeongni,37.4772,126.8664,KR
Bari,Italy,Bari,41.1253,16.8667,IT
Pucallpa,Peru,Pucallpa,-8.3833,-74.55,PE
Kuching,Malaysia,Kuching,1.5397,110.3542,MY
Zinder,Niger,Zinder,13.8,8.9833,NE
Caucaia,Brazil,Caucaia,-3.7328,-38.6558,BR
Gonder,Ethiopia,Gonder,12.6,37.4667,ET
Jackson,United States,Jackson,32.3163,-90.2124,US
Mekele,Ethiopia,Mekele,13.4969,39.4769,ET
Kulti,India,Kulti,23.73,86.85,IN
Santa Rosa,United States,Santa Rosa,38.4458,-122.7067,US
Gonaives,Haiti,Gonaïves,19.4456,-72.6883,HT
Lansing,United States,Lansing,42.7142,-84.5601,US
Naha,Japan,Naha,26.2122,127.6789,JP
Binxian,China,Binxian,35.0364,108.0764,CN
San Juan,Puerto Rico,San Juan,18.4037,-66.0636,PR
Lexington,United States,Lexington,38.0423,-84.4587,US
Hotan,China,Hotan,37.1012,79.9327,CN
Uige,Angola,Uíge,-7.6167,15.05,AO
Newcastle,Australia,Newcastle,-32.9167,151.75,AU
Kurgan,Russia,Kurgan,55.4408,65.3411,RU
Kaiyuan,China,Kaiyuan,23.7147,103.2585,CN
Temara,Morocco,Temara,33.9234,-6.9076,MA
Uruapan,Mexico,Uruapan,19.4208,-102.0628,MX
Camaguey,Cuba,Camagüey,21.3786,-77.9186,CU
Ann Arbor,United States,Ann Arbor,42.2755,-83.7312,US
San Salvador de Jujuy,Argentina,San Salvador de Jujuy,-24.1856,-65.2994,AR
Timisoara,Romania,Timişoara,45.7597,21.23,RO
Cordoba,Spain,Córdoba,37.8845,-4.7796,ES
Al Kut,Iraq,Al Kūt,32.4907,45.8304,IQ
Tapachula,Mexico,Tapachula,14.9,-92.2667,MX
Shahjanpur,India,Shāhjānpur,27.8804,79.905,IN
Cherepovets,Russia,Cherepovets,59.1333,37.9167,RU
San Miguelito,Panama,San Miguelito,9.05,-79.5,PA
Menongue,Angola,Menongue,-14.6585,17.691,AO
Poltava,Ukraine,Poltava,49.5744,34.5686,UA
Henderson,United States,Henderson,36.0133,-115.038,US
Maroua,Cameroon,Maroua,10.5823,14.3275,CM
Kaech'on,North Korea,Kaech’ŏn,39.6986,125.9061,KP
Asan,South Korea,Asan,36.35,126.9167,KR
Coatzacoalcos,Mexico,Coatzacoalcos,18.15,-94.4333,MX
Huntsville,United States,Huntsville,34.6988,-86.6412,US
Oskemen,Kazakhstan,Öskemen,49.99,82.6149,KZ
Tampico,Mexico,Tampico,22.2553,-97.8686,MX
Trichur,India,Trichūr,10.52,76.21,IN
Cluj-Napoca,Romania,Cluj-Napoca,46.7667,23.6,RO
General Trias,Philippines,General Trias,14.3833,120.8833,PH
Cirebon,Indonesia,Cirebon,-6.7167,108.5667,ID
Boaco,Nicaragua,Boaco,12.4722,-85.6586,NI
Ca Mau,Vietnam,Cà Mau,9.1833,105.15,VN
Cabuyao,Philippines,Cabuyao,14.275,121.125,PH
Vologda,Russia,Vologda,59.2167,39.9,RU
Saransk,Russia,Saransk,54.1833,45.1833,RU
Mobile,United States,Mobile,30.6783,-88.1162,US
Bor,South Sudan,Bor,6.2167,31.55,SS
Munster,Germany,Münster,51.9625,7.6256,DE
Barddhaman,India,Barddhamān,23.25,87.85,IN
Toshima,Japan,Toshima,35.7333,139.7167,JP
Karlsruhe,Germany,Karlsruhe,49.0167,8.4,DE
Kasur,Pakistan,Kasur,31.1167,74.45,PK
Yakou,China,Yakou,33.2937,113.5203,CN
Orel,Russia,Orël,52.9686,36.0694,RU
Safi,Morocco,Safi,32.2833,-9.2333,MA
Shahr-e Qods,Iran,Shahr-e Qods,35.7214,51.1089,IR
Vitoria da Conquista,Brazil,Vitória da Conquista,-14.8661,-40.8394,BR
Hamah,Syria,Ḩamāh,35.1333,36.75,SY
Guaruja,Brazil,Guarujá,-23.9936,-46.2564,BR
Catania,Italy,Catania,37.5027,15.0873,IT
Purnea,India,Purnea,25.78,87.47,IN
Datang,China,Datang,22.9476,113.9326,CN
Fort Collins,United States,Fort Collins,40.5478,-105.0656,US
Port Elizabeth,South Africa,Port Elizabeth,-33.9581,25.6,ZA
Alanya,Turkey,Alanya,36.5436,31.9997,TR
Asheville,United States,Asheville,35.5704,-82.5536,US
Santa Clarita,United States,Santa Clarita,34.4175,-118.4964,US
Gorgan,Iran,Gorgān,36.83,54.48,IR
Quy Nhon,Vietnam,Quy Nhơn,13.7696,109.2314,VN
Sambalpur,India,Sambalpur,21.4704,83.9701,IN
Yokkaichi,Japan,Yokkaichi,34.9667,136.6167,JP
Chalco,Mexico,Chalco,19.2647,-98.8975,MX
Mannheim,Germany,Mannheim,49.4878,8.4661,DE
Namp'o,North Korea,Namp’o,38.7333,125.4,KP
Shahriar,Iran,Shahrīār,35.6597,51.0592,IR
Coban,Guatemala,Cobán,15.4833,-90.3667,GT
Kasugai,Japan,Kasugai,35.25,136.9667,JP
Sapele,Nigeria,Sapele,5.8904,5.68,NG
Blumenau,Brazil,Blumenau,-26.9189,-49.0658,BR
Sariwon,North Korea,Sariwŏn,38.5039,125.7589,KP
St. Catharines,Canada,St. Catharines,43.1833,-79.2333,CA
Matadi,Congo (Kinshasa),Matadi,-5.8167,13.4833,CD
Niagara Falls,Canada,Niagara Falls,43.06,-79.1067,CA
Firozabad,India,Fīrozābād,27.15,78.3949,IN
San Fernando,Philippines,San Fernando,15.0333,120.6833,PH
St. Paul,United States,St. Paul,44.9477,-93.104,US
Vladikavkaz,Russia,Vladikavkaz,43.04,44.6775,RU
Yakutsk,Russia,Yakutsk,62.0272,129.7319,RU
Minna,Nigeria,Minna,9.6139,6.5569,NG
Hisar,India,Hisar,29.1489,75.7367,IN
Puerto La Cruz,Venezuela,Puerto La Cruz,10.2167,-64.6167,VE
Podolsk,Russia,Podolsk,55.4297,37.5444,RU
Ciudad Victoria,Mexico,Ciudad Victoria,23.7333,-99.1333,MX
Ciudad del Este,Paraguay,Ciudad del Este,-25.5167,-54.6167,PY
Vaughan,Canada,Vaughan,43.8333,-79.5,CA
Oakashicho,Japan,Ōakashichō,34.6431,134.9975,JP
Pekalongan,Indonesia,Pekalongan,-6.8883,109.6753,ID
Adiyaman,Turkey,Adıyaman,37.7644,38.2763,TR
Vila Nova de Gaia,Portugal,Vila Nova de Gaia,41.1333,-8.6167,PT
Curepipe,Mauritius,Curepipe,-20.3162,57.5166,MU
Cabanatuan City,Philippines,Cabanatuan City,15.4833,120.9667,PH
Paulista,Brazil,Paulista,-7.9408,-34.8728,BR
Oaxaca,Mexico,Oaxaca,17.0833,-96.75,MX
Armenia,Colombia,Armenia,4.5389,-75.6725,CO
Akita,Japan,Akita,39.7197,140.1025,JP
San Bernardo,Chile,San Bernardo,-33.6,-70.7167,CL
Wollongong,Australia,Wollongong,-34.4331,150.8831,AU
Brest,France,Brest,48.39,-4.49,FR
Awka,Nigeria,Awka,6.2,7.0667,NG
Iksan,South Korea,Iksan,35.9439,126.9544,KR
Taubate,Brazil,Taubaté,-23.0333,-45.55,BR
Antioch,United States,Antioch,37.9789,-121.7958,US
Lakeland,United States,Lakeland,28.0556,-81.9545,US
Soc Trang,Vietnam,Sóc Trăng,9.6,105.9719,VN
Awasa,Ethiopia,Āwasa,7.05,38.4667,ET
Mardan,Pakistan,Mardan,34.1958,72.0447,PK
Popayan,Colombia,Popayán,2.4411,-76.6061,CO
Praia Grande,Brazil,Praia Grande,-24.0058,-46.4028,BR
Qianzhou,China,Qianzhou,28.3185,109.7318,CN
Cotabato,Philippines,Cotabato,7.2167,124.25,PH
Valladolid,Spain,Valladolid,41.6528,-4.7236,ES
Mossoro,Brazil,Mossoró,-5.1878,-37.3439,BR
Coatepeque,Guatemala,Coatepeque,14.7,-91.8667,GT
Bidar,India,Bīdar,17.9229,77.5175,IN
Bialystok,Poland,Białystok,53.1167,23.1667,PL
Merida,Venezuela,Mérida,8.5833,-71.1333,VE
Murmansk,Russia,Murmansk,68.9667,33.0833,RU
Ar Raqqah,Syria,Ar Raqqah,35.95,39.0167,SY
Afyonkarahisar,Turkey,Afyonkarahisar,38.7581,30.5386,TR
Vigo,Spain,Vigo,42.2314,-8.7124,ES
Jember,Indonesia,Jember,-8.1727,113.6873,ID
Bahia Blanca,Argentina,Bahía Blanca,-38.7167,-62.2667,AR
Iskenderun,Turkey,İskenderun,36.5804,36.17,TR
Al Mubarraz,Saudi Arabia,Al Mubarraz,25.41,49.5808,SA
Petropolis,Brazil,Petrópolis,-22.505,-43.1789,BR
Al Kharj,Saudi Arabia,Al Kharj,24.1556,47.312,SA
Rampur,India,Rāmpur,28.8154,79.025,IN
Najran,Saudi Arabia,Najrān,17.4917,44.1322,SA
Chernihiv,Ukraine,Chernihiv,51.4939,31.2947,UA
Yangsan,South Korea,Yangsan,35.3386,129.0386,KR
Comilla,Bangladesh,Comilla,23.45,91.2,BD
Oyster Bay,United States,Oyster Bay,40.7845,-73.5139,US
Valparaiso,Chile,Valparaíso,-33.0458,-71.6197,CL
Augsburg,Germany,Augsburg,48.3717,10.8983,DE
Mbeya,Tanzania,Mbeya,-8.9,33.45,TZ
Limeira,Brazil,Limeira,-22.5647,-47.4017,BR
Rangpur,Bangladesh,Rangpur,25.75,89.25,BD
Shiliguri,India,Shiliguri,26.72,88.42,IN
Aksaray,Turkey,Aksaray,38.3686,34.0297,TR
Navotas,Philippines,Navotas,14.6667,120.9417,PH
Corum,Turkey,Çorum,40.5489,34.9533,TR
Bali,India,Bāli,22.65,88.34,IN
Ismailia,Egypt,Ismailia,30.5833,32.2667,EG
Vila Teixeira da Silva,Angola,Vila Teixeira da Silva,-12.1958,15.8556,AO
Panipat,India,Pānīpat,29.4004,76.97,IN
Delmas,Haiti,Delmas,18.55,-72.3,HT
Batna,Algeria,Batna,35.55,6.1667,DZ
Kunp'o,South Korea,Kunp’o,37.3675,126.9469,KR
Tambov,Russia,Tambov,52.7167,41.4333,RU
Iasi,Romania,Iaşi,47.1622,27.5889,RO
Thies,Senegal,Thiès,14.7833,-16.9167,SN
Makurdi,Nigeria,Makurdi,7.73,8.53,NG
Kherson,Ukraine,Kherson,46.6333,32.6,UA
Groznyy,Russia,Groznyy,43.3125,45.6986,RU
Hong'an,China,Hong’an,47.21,123.61,CN
Bafoussam,Cameroon,Bafoussam,5.4667,10.4167,CM
Resistencia,Argentina,Resistencia,-27.4514,-58.9867,AR
Brasov,Romania,Braşov,45.65,25.6,RO
Kassel,Germany,Kassel,51.3166,9.4912,DE
Juliaca,Peru,Juliaca,-15.4908,-70.1269,PE
Karimnagar,India,Karīmnagar,18.4333,79.15,IN
Morioka,Japan,Morioka,39.6833,141.15,JP
Setif,Algeria,Sétif,36.19,5.41,DZ
Trenton,United States,Trenton,40.2236,-74.7641,US
Kaunas,Lithuania,Kaunas,54.9,23.9333,LT
Mulhouse,France,Mulhouse,47.75,7.34,FR
Sekondi,Ghana,Sekondi,4.9433,-1.704,GH
Lincoln,United States,Lincoln,40.809,-96.6788,US
Bhuj,India,Bhuj,23.2504,69.81,IN
Ichalkaranji,India,Ichalkaranji,16.7,74.47,IN
Tirupati,India,Tirupati,13.65,79.42,IN
Springfield,United States,Springfield,37.1943,-93.2916,US
Anchorage,United States,Anchorage,61.1508,-149.1091,US
Punto Fijo,Venezuela,Punto Fijo,11.7167,-70.1833,VE
Sincelejo,Colombia,Sincelejo,9.2994,-75.3958,CO
Plano,United States,Plano,33.0502,-96.7487,US
Irvine,United States,Irvine,33.6772,-117.7738,US
Camacari,Brazil,Camaçari,-12.6978,-38.3239,BR
Orleans,France,Orléans,47.9025,1.909,FR
Binangonan,Philippines,Binangonan,14.4514,121.1919,PH
Suzano,Brazil,Suzano,-23.5428,-46.3108,BR
Hospet,India,Hospet,15.2667,76.4,IN
Ostrava,Czechia,Ostrava,49.8356,18.2925,CZ
Tacna,Peru,Tacna,-18.0556,-70.2483,PE
Korhogo,Côte D’Ivoire,Korhogo,9.4578,-5.6294,CI
Constanta,Romania,Constanţa,44.1733,28.6383,RO
Haifa,Israel,Haifa,32.8,34.9833,IL
Coacalco,Mexico,Coacalco,19.6333,-99.0931,MX
Crato,Brazil,Crato,-7.2342,-39.4094,BR
Limoges,France,Limoges,45.8353,1.2625,FR
Davenport,United States,Davenport,41.5563,-90.6052,US
Fukushima,Japan,Fukushima,37.7608,140.4733,JP
Barinas,Venezuela,Barinas,8.615,-70.1985,VE
Coro,Venezuela,Coro,11.395,-69.6816,VE
Bago,Myanmar,Bago,17.3433,96.4981,MM
Fuquan,China,Fuquan,26.7039,107.5087,CN
Tongchuanshi,China,Tongchuanshi,35.08,109.03,CN
Aizawl,India,Āīzawl,23.7104,92.72,IN
Santa Maria,Brazil,Santa Maria,-29.6839,-53.8069,BR
Taboao da Serra,Brazil,Taboão da Serra,-23.6019,-46.7528,BR
Maraba,Brazil,Marabá,-5.3689,-49.1178,BR
Sannai,India,Sannai,24.16,80.83,IN
Huozhou,China,Huozhou,36.5726,111.7176,CN
Temuco,Chile,Temuco,-38.7399,-72.5901,CL
Sterlitamak,Russia,Sterlitamak,53.6333,55.95,RU
Rockford,United States,Rockford,42.2597,-89.0641,US
Tegal,Indonesia,Tegal,-6.8667,109.1333,ID
Ica,Peru,Ica,-14.0667,-75.7333,PE
Newark,United States,Newark,40.7245,-74.1725,US
Jining,China,Jining,41.03,113.08,CN
Chuncheon,South Korea,Chuncheon,37.8747,127.7342,KR
Malard,Iran,Malārd,35.6658,50.9767,IR
Pematangsiantar,Indonesia,Pematangsiantar,2.96,99.06,ID
Long Xuyen,Vietnam,Long Xuyên,10.3686,105.4234,VN
Petrozavodsk,Russia,Petrozavodsk,61.7833,34.35,RU
South Bend,United States,South Bend,41.6767,-86.2696,US
Mingaora,Pakistan,Mingaora,34.7717,72.36,PK
San Pedro Carcha,Guatemala,San Pedro Carchá,15.4768,-90.312,GT
Barasat,India,Bārāsat,22.2333,88.45,IN
Shreveport,United States,Shreveport,32.4656,-93.7956,US
Sumbe,Angola,Sumbe,-11.2052,13.8417,AO
Viet Tri,Vietnam,Việt Trì,21.3136,105.3947,VN
Cherkasy,Ukraine,Cherkasy,49.4444,32.0597,UA
Caala,Angola,Caála,-12.85,15.55,AO
Wiesbaden,Germany,Wiesbaden,50.0825,8.24,DE
Kostroma,Russia,Kostroma,57.7667,40.9333,RU
Round Lake Beach,United States,Round Lake Beach,42.379,-88.0811,US
Gyeongsan,South Korea,Gyeongsan,35.8167,128.7333,KR
Governador Valadares,Brazil,Governador Valadares,-18.8508,-41.9489,BR
Katowice,Poland,Katowice,50.25,19,PL
Shaowu,China,Shaowu,27.3417,117.4869,CN
Sfax,Tunisia,Sfax,34.74,10.76,TN
Nizhnevartovsk,Russia,Nizhnevartovsk,60.9389,76.595,RU
Linxia Chengguanzhen,China,Linxia Chengguanzhen,35.6,103.2167,CN
Pachuca,Mexico,Pachuca,20.1,-98.75,MX
Juazeiro do Norte,Brazil,Juazeiro do Norte,-7.2128,-39.315,BR
Dire Dawa,Ethiopia,Dire Dawa,9.5833,41.8667,ET
Khmelnytskyi,Ukraine,Khmelnytskyi,49.42,27,UA
Owo,Nigeria,Owo,7.1962,5.5868,NG
San Cristobal,Dominican Republic,San Cristóbal,18.4167,-70.1333,DO
Savannah,United States,Savannah,32.0281,-81.1784,US
Posadas,Argentina,Posadas,-27.3667,-55.8969,AR
Gatineau,Canada,Gatineau,45.4833,-75.65,CA
Windsor,Canada,Windsor,42.2833,-83,CA
Myrtle Beach,United States,Myrtle Beach,33.7096,-78.8843,US
Mbandaka,Congo (Kinshasa),Mbandaka,0.0486,18.2603,CD
Tehuacan,Mexico,Tehuacán,18.4617,-97.3928,MX
La Guaira,Venezuela,La Guaira,10.6,-66.9331,VE
Kunsan,South Korea,Kunsan,35.9786,126.7114,KR
Chula Vista,United States,Chula Vista,32.6281,-117.0145,US
Ratlam,India,Ratlām,23.3167,75.0667,IN
Yeosu,South Korea,Yeosu,34.7607,127.6622,KR
Crato,Brazil,Crato,-7.4639,-63.04,BR
Derby,United Kingdom,Derby,52.9167,-1.4667,GB
Tsu,Japan,Tsu,34.7186,136.5056,JP
Kafr ad Dawwar,Egypt,Kafr ad Dawwār,31.1417,30.1272,EG
Eugene,United States,Eugene,44.0563,-123.1173,US
Gijon,Spain,Gijón,43.5333,-5.7,ES
Bijiao,China,Bijiao,22.9311,113.2018,CN
Chiayi,Taiwan,Chiayi,23.48,120.4497,TW
Palmas,Brazil,Palmas,-10.2128,-48.3603,BR
